$GPGGA,033802.000,5104.5756,N,11403.5989,W,2,09,0.91,1077.6,M,-17.5,M,0000,0000*64
$GPGSA,A,3,25,05,29,31,21,12,09,02,26,,,,1.69,0.91,1.42*07
$GPGSV,3,1,11,29,66,299,38,05,59,109,19,25,47,211,20,02,38,070,28*70
$GPGSV,3,2,11,46,29,199,36,12,25,178,21,21,19,252,48,26,12,323,35*7D
$GPGSV,3,3,11,31,12,291,34,09,07,025,19,06,05,067,*46
$GPRMC,033802.000,A,5104.5756,N,11403.5989,W,0.02,34.32,250320,,,D*4A
$GPVTG,34.32,T,,M,0.02,N,0.03,K,D*0F
$GPGGA,033803.000,5104.5756,N,11403.5989,W,2,09,0.91,1077.7,M,-17.5,M,0000,0000*64
$GPGSA,A,3,25,05,29,31,21,12,09,02,26,,,,1.69,0.91,1.42*07
$GPRMC,033803.000,A,5104.5756,N,11403.5989,W,0.01,307.96,250320,,,D*75
$GPVTG,307.96,T,,M,0.01,N,0.03,K,D*31
$GPGGA,033804.000,5104.5756,N,11403.5989,W,2,09,0.91,1077.7,M,-17.5,M,0000,0000*63
$GPGSA,A,3,25,05,29,31,21,12,09,02,26,,,,1.69,0.91,1.42*07
$GPRMC,033804.000,A,5104.5756,N,11403.5989,W,0.00,76.83,250320,,,D*42
$GPVTG,76.83,T,,M,0.00,N,0.00,K,D*02
$GPGGA,033805.000,5104.5756,N,11403.5989,W,2,09,0.91,1077.7,M,-17.5,M,0000,0000*62
$GPGSA,A,3,25,05,29,31,21,12,09,02,26,,,,1.69,0.91,1.42*07
$GPRMC,033805.000,A,5104.5756,N,11403.5989,W,0.01,3.33,250320,,,D*7B
$GPVTG,3.33,T,,M,0.01,N,0.01,K,D*3B
$GPGGA,033806.000,5104.5756,N,11403.5989,W,2,09,0.91,1077.7,M,-17.5,M,0000,0000*61
$GPGSA,A,3,25,05,29,31,21,12,09,02,26,,,,1.69,0.91,1.42*07
$GPRMC,033806.000,A,5104.5756,N,11403.5989,W,0.00,232.86,250320,,,D*77
$GPVTG,232.86,T,,M,0.00,N,0.01,K,D*34
$GPGGA,033807.000,5104.5756,N,11403.5989,W,2,09,0.91,1077.7,M,-17.5,M,0000,0000*60
$GPGSA,A,3,25,05,29,31,21,12,09,02,26,,,,1.69,0.91,1.42*07
$GPGSV,3,1,11,29,66,299,38,05,59,109,19,25,47,211,22,02,38,070,28*72
$GPGSV,3,2,11,46,29,199,36,12,25,178,21,21,19,252,48,26,12,323,35*7D
$GPGSV,3,3,11,31,12,291,34,09,07,025,19,06,05,067,*46
$GPRMC,033807.000,A,5104.5756,N,11403.5989,W,0.01,92.69,250320,,,D*4E
$GPVTG,92.69,T,,M,0.01,N,0.01,K,D*0C
$GPGGA,033808.000,5104.5756,N,11403.5989,W,2,09,0.91,1077.7,M,-17.5,M,0000,0000*6F
$GPGSA,A,3,25,05,29,31,21,12,09,02,26,,,,1.69,0.91,1.42*07
$GPRMC,033808.000,A,5104.5756,N,11403.5989,W,0.01,242.00,250320,,,D*71
$GPVTG,242.00,T,,M,0.01,N,0.02,K,D*3F
$GPGGA,033809.000,5104.5756,N,11403.5989,W,2,09,0.91,1077.7,M,-17.5,M,0000,0000*6E
$GPGSA,A,3,25,05,29,31,21,12,09,02,26,,,,1.69,0.91,1.42*07
$GPRMC,033809.000,A,5104.5756,N,11403.5989,W,0.02,91.34,250320,,,D*48
$GPVTG,91.34,T,,M,0.02,N,0.04,K,D*01
$GPGGA,033810.000,5104.5756,N,11403.5989,W,2,09,0.91,1077.7,M,-17.5,M,0000,0000*66
$GPGSA,A,3,25,05,29,31,21,12,09,02,26,,,,1.69,0.91,1.42*07
$GPRMC,033810.000,A,5104.5756,N,11403.5989,W,0.01,309.22,250320,,,D*76
$GPVTG,309.22,T,,M,0.01,N,0.02,K,D*31
$GPGGA,033811.000,5104.5756,N,11403.5989,W,2,09,0.91,1077.7,M,-17.5,M,0000,0000*67
$GPGSA,A,3,25,05,29,31,21,12,09,02,26,,,,1.69,0.91,1.42*07
$GPRMC,033811.000,A,5104.5756,N,11403.5989,W,0.01,253.80,250320,,,D*71
$GPVTG,253.80,T,,M,0.01,N,0.02,K,D*37
$GPGGA,033812.000,5104.5756,N,11403.5989,W,2,09,0.91,1077.7,M,-17.5,M,0000,0000*64
$GPGSA,A,3,25,05,29,31,21,12,09,02,26,,,,1.69,0.91,1.42*07
$GPGSV,3,1,11,29,66,299,38,05,59,109,20,25,46,211,26,02,38,070,28*7D
$GPGSV,3,2,11,46,29,199,36,12,25,178,21,21,19,252,48,26,13,323,35*7C
$GPGSV,3,3,11,31,12,291,35,09,07,025,18,06,05,067,*46
$GPRMC,033812.000,A,5104.5756,N,11403.5989,W,0.04,227.49,250320,,,D*71
$GPVTG,227.49,T,,M,0.04,N,0.07,K,D*31
$GPGGA,033813.000,5104.5756,N,11403.5989,W,2,09,0.91,1077.7,M,-17.5,M,0000,0000*65
$GPGSA,A,3,25,05,29,31,21,12,09,02,26,,,,1.69,0.91,1.42*07
$GPRMC,033813.000,A,5104.5756,N,11403.5989,W,0.01,93.39,250320,,,D*4F
$GPVTG,93.39,T,,M,0.01,N,0.03,K,D*0A
$GPGGA,033814.000,5104.5756,N,11403.5989,W,2,09,0.91,1077.7,M,-17.5,M,0000,0000*62
$GPGSA,A,3,25,05,29,31,21,12,09,02,26,,,,1.68,0.91,1.42*06
$GPRMC,033814.000,A,5104.5756,N,11403.5989,W,0.01,244.89,250320,,,D*7B
$GPVTG,244.89,T,,M,0.01,N,0.02,K,D*38
$GPGGA,033815.000,5104.5756,N,11403.5989,W,2,08,1.03,1077.7,M,-17.5,M,0000,0000*68
$GPGSA,A,3,25,05,29,31,21,12,02,26,,,,,1.95,1.03,1.66*01
$GPRMC,033815.000,A,5104.5756,N,11403.5989,W,0.01,313.08,250320,,,D*70
$GPVTG,313.08,T,,M,0.01,N,0.01,K,D*31
$GPGGA,033816.000,5104.5756,N,11403.5989,W,2,08,1.03,1077.7,M,-17.5,M,0000,0000*6B
$GPGSA,A,3,25,05,29,31,21,12,02,26,,,,,1.95,1.03,1.66*01
$GPRMC,033816.000,A,5104.5756,N,11403.5989,W,0.02,173.95,250320,,,D*70
$GPVTG,173.95,T,,M,0.02,N,0.04,K,D*37
$GPGGA,033817.000,5104.5756,N,11403.5989,W,2,08,1.03,1077.7,M,-17.5,M,0000,0000*6A
$GPGSA,A,3,25,05,29,31,21,12,02,26,,,,,1.96,1.03,1.66*02
$GPGSV,3,1,11,29,66,299,39,05,59,109,21,25,46,211,28,02,38,070,29*72
$GPGSV,3,2,11,46,29,199,36,12,25,178,23,21,19,252,48,26,13,323,35*7E
$GPGSV,3,3,11,31,12,290,35,09,07,025,14,06,05,067,*4B
$GPRMC,033817.000,A,5104.5756,N,11403.5989,W,0.02,282.24,250320,,,D*76
$GPVTG,282.24,T,,M,0.02,N,0.03,K,D*37
$GPGGA,033818.000,5104.5756,N,11403.5989,W,2,08,1.03,1077.7,M,-17.5,M,0000,0000*65
$GPGSA,A,3,25,05,29,31,21,12,02,26,,,,,1.95,1.03,1.66*01
$GPRMC,033818.000,A,5104.5756,N,11403.5989,W,0.01,264.23,250320,,,D*75
$GPVTG,264.23,T,,M,0.01,N,0.03,K,D*3B
$GPGGA,033819.000,5104.5756,N,11403.5989,W,2,08,1.03,1077.7,M,-17.5,M,0000,0000*64
$GPGSA,A,3,25,05,29,31,21,12,02,26,,,,,1.96,1.03,1.66*02
$GPRMC,033819.000,A,5104.5756,N,11403.5989,W,0.03,210.38,250320,,,D*7F
$GPVTG,210.38,T,,M,0.03,N,0.06,K,D*35
$GPGGA,033820.000,5104.5756,N,11403.5989,W,2,08,1.03,1077.7,M,-17.5,M,0000,0000*6E
$GPGSA,A,3,25,05,29,31,21,12,02,26,,,,,1.96,1.03,1.66*02
$GPRMC,033820.000,A,5104.5756,N,11403.5989,W,0.01,112.71,250320,,,D*7B
$GPVTG,112.71,T,,M,0.01,N,0.02,K,D*3F
$GPGGA,033821.000,5104.5756,N,11403.5989,W,2,08,1.03,1077.7,M,-17.5,M,0000,0000*6F
$GPGSA,A,3,25,05,29,31,21,12,02,26,,,,,1.95,1.03,1.66*01
$GPRMC,033821.000,A,5104.5756,N,11403.5989,W,0.03,216.77,250320,,,D*79
$GPVTG,216.77,T,,M,0.03,N,0.05,K,D*3B
$GPGGA,033822.000,5104.5756,N,11403.5989,W,2,08,1.03,1077.7,M,-17.5,M,0000,0000*6C
$GPGSA,A,3,25,05,29,31,21,12,02,26,,,,,1.95,1.03,1.66*01
$GPGSV,3,1,11,29,66,299,39,05,59,109,21,25,46,211,27,02,38,070,29*7D
$GPGSV,3,2,11,46,29,199,35,12,25,178,24,21,19,252,48,26,13,323,35*7A
$GPGSV,3,3,11,31,12,290,34,09,07,025,13,06,05,067,*4D
$GPRMC,033822.000,A,5104.5756,N,11403.5989,W,0.03,204.01,250320,,,D*78
$GPVTG,204.01,T,,M,0.03,N,0.06,K,D*3A
$GPGGA,033823.000,5104.5756,N,11403.5989,W,2,08,1.03,1077.7,M,-17.5,M,0000,0000*6D
$GPGSA,A,3,25,05,29,31,21,12,02,26,,,,,1.96,1.03,1.66*02
$GPRMC,033823.000,A,5104.5756,N,11403.5989,W,0.04,219.70,250320,,,D*74
$GPVTG,219.70,T,,M,0.04,N,0.07,K,D*36
$GPGGA,033824.000,5104.5756,N,11403.5989,W,2,08,1.03,1077.7,M,-17.5,M,0000,0000*6A
$GPGSA,A,3,25,05,29,31,21,12,02,26,,,,,1.95,1.03,1.66*01
$GPRMC,033824.000,A,5104.5756,N,11403.5989,W,0.01,114.48,250320,,,D*73
$GPVTG,114.48,T,,M,0.01,N,0.02,K,D*33
$GPGGA,033825.000,5104.5756,N,11403.5989,W,2,08,1.03,1077.7,M,-17.5,M,0000,0000*6B
$GPGSA,A,3,25,05,29,31,21,12,02,26,,,,,1.95,1.03,1.66*01
$GPRMC,033825.000,A,5104.5756,N,11403.5989,W,0.03,264.38,250320,,,D*73
$GPVTG,264.38,T,,M,0.03,N,0.06,K,D*36
$GPGGA,033826.000,5104.5756,N,11403.5989,W,2,08,1.03,1077.7,M,-17.5,M,0000,0000*68
$GPGSA,A,3,25,05,29,31,21,12,02,26,,,,,1.95,1.03,1.66*01
$GPRMC,033826.000,A,5104.5756,N,11403.5989,W,0.02,84.30,250320,,,D*45
$GPVTG,84.30,T,,M,0.02,N,0.03,K,D*06
$GPGGA,033827.000,5104.5756,N,11403.5989,W,2,08,1.03,1077.7,M,-17.5,M,0000,0000*69
$GPGSA,A,3,25,05,29,31,21,12,02,26,,,,,1.95,1.03,1.66*01
$GPGSV,3,1,11,29,66,299,39,05,59,109,21,25,46,211,26,02,38,070,29*7C
$GPGSV,3,2,11,46,29,199,35,12,25,178,25,21,19,252,48,26,13,323,35*7B
$GPGSV,3,3,11,31,12,290,34,09,07,025,12,06,05,068,*43
$GPRMC,033827.000,A,5104.5756,N,11403.5989,W,0.00,178.06,250320,,,D*71
$GPVTG,178.06,T,,M,0.00,N,0.01,K,D*31
$GPGGA,033828.000,5104.5756,N,11403.5989,W,2,08,1.03,1077.7,M,-17.5,M,0000,0000*66
$GPGSA,A,3,25,05,29,31,21,12,02,26,,,,,1.95,1.03,1.66*01
$GPRMC,033828.000,A,5104.5756,N,11403.5989,W,0.02,204.00,250320,,,D*72
$GPVTG,204.00,T,,M,0.02,N,0.05,K,D*39
$GPGGA,033829.000,5104.5756,N,11403.5989,W,2,08,1.03,1077.7,M,-17.5,M,0000,0000*67
$GPGSA,A,3,25,05,29,31,21,12,02,26,,,,,1.95,1.03,1.66*01
$GPRMC,033829.000,A,5104.5756,N,11403.5989,W,0.01,157.52,250320,,,D*72
$GPVTG,157.52,T,,M,0.01,N,0.02,K,D*3F
$GPGGA,033830.000,5104.5756,N,11403.5989,W,2,08,1.03,1077.7,M,-17.5,M,0000,0000*6F
$GPGSA,A,3,25,05,29,31,21,12,02,26,,,,,1.95,1.03,1.66*01
$GPRMC,033830.000,A,5104.5756,N,11403.5989,W,0.02,225.27,250320,,,D*7D
$GPVTG,225.27,T,,M,0.02,N,0.04,K,D*3E
$GPGGA,033831.000,5104.5756,N,11403.5989,W,2,08,1.03,1077.7,M,-17.5,M,0000,0000*6E
$GPGSA,A,3,25,05,29,31,21,12,02,26,,,,,1.95,1.03,1.66*01
$GPRMC,033831.000,A,5104.5756,N,11403.5989,W,0.02,192.59,250320,,,D*7A
$GPVTG,192.59,T,,M,0.02,N,0.03,K,D*3F
$GPGGA,033832.000,5104.5756,N,11403.5989,W,2,08,1.03,1077.7,M,-17.5,M,0000,0000*6D
$GPGSA,A,3,25,05,29,31,21,12,02,26,,,,,1.95,1.03,1.66*01
$GPGSV,3,1,11,29,66,299,39,05,59,109,21,25,46,211,24,02,38,070,29*7E
$GPGSV,3,2,11,46,29,199,36,12,24,178,26,21,19,252,48,26,13,323,35*7A
$GPGSV,3,3,11,31,12,290,33,09,07,025,12,06,05,068,*44
$GPRMC,033832.000,A,5104.5756,N,11403.5989,W,0.01,349.02,250320,,,D*70
$GPVTG,349.02,T,,M,0.01,N,0.02,K,D*37
$GPGGA,033833.000,5104.5756,N,11403.5989,W,2,08,1.03,1077.7,M,-17.5,M,0000,0000*6C
$GPGSA,A,3,25,05,29,31,21,12,02,26,,,,,1.95,1.03,1.66*01
$GPRMC,033833.000,A,5104.5756,N,11403.5989,W,0.02,317.54,250320,,,D*7A
$GPVTG,317.54,T,,M,0.02,N,0.04,K,D*3A
$GPGGA,033834.000,5104.5756,N,11403.5989,W,2,09,0.88,1077.7,M,-17.5,M,0000,0000*68
$GPGSA,A,3,25,05,29,31,21,12,06,02,26,,,,1.53,0.88,1.25*08
$GPRMC,033834.000,A,5104.5756,N,11403.5989,W,0.02,283.41,250320,,,D*75
$GPVTG,283.41,T,,M,0.02,N,0.03,K,D*35
$GPGGA,033835.000,5104.5756,N,11403.5989,W,2,08,1.03,1077.8,M,-17.5,M,0000,0000*65
$GPGSA,A,3,25,05,29,31,21,12,02,26,,,,,1.95,1.03,1.66*01
$GPRMC,033835.000,A,5104.5756,N,11403.5989,W,0.01,210.53,250320,,,D*7E
$GPVTG,210.53,T,,M,0.01,N,0.02,K,D*3E
$GPGGA,033836.000,5104.5756,N,11403.5989,W,2,08,1.03,1077.8,M,-17.5,M,0000,0000*66
$GPGSA,A,3,25,05,29,31,21,12,02,26,,,,,1.95,1.03,1.66*01
$GPRMC,033836.000,A,5104.5756,N,11403.5989,W,0.04,246.93,250320,,,D*77
$GPVTG,246.93,T,,M,0.04,N,0.07,K,D*31
$GPGGA,033837.000,5104.5756,N,11403.5990,W,2,08,1.03,1077.8,M,-17.5,M,0000,0000*6F
$GPGSA,A,3,25,05,29,31,21,12,02,26,,,,,1.95,1.03,1.66*01
$GPGSV,3,1,11,29,66,299,39,05,59,109,21,25,46,211,24,02,38,070,29*7E
$GPGSV,3,2,11,46,29,199,35,12,24,178,26,21,19,252,48,26,13,323,35*79
$GPGSV,3,3,11,31,12,290,33,09,07,025,13,06,05,068,*45
$GPRMC,033837.000,A,5104.5756,N,11403.5990,W,0.04,240.78,250320,,,D*7D
$GPVTG,240.78,T,,M,0.04,N,0.07,K,D*32
$GPGGA,033838.000,5104.5756,N,11403.5990,W,2,08,1.03,1077.8,M,-17.5,M,0000,0000*60
$GPGSA,A,3,25,05,29,31,21,12,02,26,,,,,1.95,1.03,1.66*01
$GPRMC,033838.000,A,5104.5756,N,11403.5990,W,0.04,234.44,250320,,,D*7E
$GPVTG,234.44,T,,M,0.04,N,0.07,K,D*3E
$GPGGA,033839.000,5104.5756,N,11403.5990,W,2,08,1.03,1077.8,M,-17.5,M,0000,0000*61
$GPGSA,A,3,25,05,29,31,21,12,02,26,,,,,1.95,1.03,1.66*01
$GPRMC,033839.000,A,5104.5756,N,11403.5990,W,0.02,240.70,250320,,,D*7D
$GPVTG,240.70,T,,M,0.02,N,0.04,K,D*3F
$GPGGA,033840.000,5104.5756,N,11403.5990,W,2,08,1.03,1077.8,M,-17.5,M,0000,0000*6F
$GPGSA,A,3,25,05,29,31,21,12,02,26,,,,,1.95,1.03,1.66*01
$GPRMC,033840.000,A,5104.5756,N,11403.5990,W,0.01,283.62,250320,,,D*7C
$GPVTG,283.62,T,,M,0.01,N,0.02,K,D*36
$GPGGA,033841.000,5104.5756,N,11403.5990,W,2,08,1.03,1077.8,M,-17.5,M,0000,0000*6E
$GPGSA,A,3,25,05,29,31,21,12,02,26,,,,,1.95,1.03,1.66*01
$GPRMC,033841.000,A,5104.5756,N,11403.5990,W,0.01,98.52,250320,,,D*46
$GPVTG,98.52,T,,M,0.01,N,0.01,K,D*0E
$GPGGA,033842.000,5104.5756,N,11403.5990,W,2,08,1.03,1077.8,M,-17.5,M,0000,0000*6D
$GPGSA,A,3,25,05,29,31,21,12,02,26,,,,,1.95,1.03,1.66*01
$GPGSV,3,1,11,29,66,299,39,05,59,109,22,25,46,211,25,02,38,070,28*7D
$GPGSV,3,2,11,46,29,199,35,12,24,178,26,21,19,252,48,26,13,323,35*79
$GPGSV,3,3,11,31,12,290,33,09,07,025,,06,05,068,*47
$GPRMC,033842.000,A,5104.5756,N,11403.5990,W,0.01,235.82,250320,,,D*7D
$GPVTG,235.82,T,,M,0.01,N,0.03,K,D*34
$GPGGA,033843.000,5104.5756,N,11403.5991,W,2,09,0.91,1077.9,M,-17.5,M,0000,0000*67
$GPGSA,A,3,25,05,29,31,21,12,09,02,26,,,,1.68,0.91,1.42*06
$GPRMC,033843.000,A,5104.5756,N,11403.5991,W,0.01,240.25,250320,,,D*72
$GPVTG,240.25,T,,M,0.01,N,0.02,K,D*3A
$GPGGA,033844.000,5104.5756,N,11403.5989,W,2,09,0.91,1078.0,M,-17.5,M,0000,0000*6F
$GPGSA,A,3,25,05,29,31,21,12,09,02,26,,,,1.68,0.91,1.41*05
$GPRMC,033844.000,A,5104.5756,N,11403.5989,W,0.01,82.46,250320,,,D*45
$GPVTG,82.46,T,,M,0.01,N,0.02,K,D*03
$GPGGA,033845.000,5104.5755,N,11403.5990,W,2,09,0.91,1078.1,M,-17.5,M,0000,0000*64
$GPGSA,A,3,25,05,29,31,21,12,09,02,26,,,,1.68,0.91,1.42*06
$GPRMC,033845.000,A,5104.5755,N,11403.5990,W,0.01,199.04,250320,,,D*72
$GPVTG,199.04,T,,M,0.01,N,0.02,K,D*3E
$GPGGA,033846.000,5104.5755,N,11403.5988,W,2,10,0.83,1078.1,M,-17.5,M,0000,0000*65
$GPGSA,A,3,25,05,29,31,21,12,09,06,02,26,,,1.47,0.83,1.22*08
$GPRMC,033846.000,A,5104.5755,N,11403.5988,W,0.02,143.59,250320,,,D*74
$GPVTG,143.59,T,,M,0.02,N,0.04,K,D*34
$GPGGA,033847.000,5104.5755,N,11403.5988,W,2,10,0.83,1078.1,M,-17.5,M,0000,0000*64
$GPGSA,A,3,25,05,29,31,21,12,09,06,02,26,,,1.47,0.83,1.22*08
$GPGSV,3,1,11,29,66,299,39,05,59,109,22,25,46,210,25,02,38,070,26*72
$GPGSV,3,2,11,46,29,199,35,12,24,178,27,21,19,252,48,26,13,322,35*79
$GPGSV,3,3,11,31,12,290,31,09,07,025,18,06,05,068,20*4E
$GPRMC,033847.000,A,5104.5755,N,11403.5988,W,0.02,75.66,250320,,,D*4D
$GPVTG,75.66,T,,M,0.02,N,0.03,K,D*0B
$GPGGA,033848.000,5104.5755,N,11403.5988,W,2,10,0.83,1078.1,M,-17.5,M,0000,0000*6B
$GPGSA,A,3,25,05,29,31,21,12,09,06,02,26,,,1.47,0.83,1.22*08
$GPRMC,033848.000,A,5104.5755,N,11403.5988,W,0.03,37.28,250320,,,D*4F
$GPVTG,37.28,T,,M,0.03,N,0.05,K,D*00
$GPGGA,033849.000,5104.5755,N,11403.5988,W,2,10,0.83,1078.1,M,-17.5,M,0000,0000*6A
$GPGSA,A,3,25,05,29,31,21,12,09,06,02,26,,,1.47,0.83,1.22*08
$GPRMC,033849.000,A,5104.5755,N,11403.5988,W,0.01,39.45,250320,,,D*49
$GPVTG,39.45,T,,M,0.01,N,0.03,K,D*01
$GPGGA,033850.000,5104.5755,N,11403.5988,W,2,10,0.83,1078.1,M,-17.5,M,0000,0000*62
$GPGSA,A,3,25,05,29,31,21,12,09,06,02,26,,,1.47,0.83,1.22*08
$GPRMC,033850.000,A,5104.5755,N,11403.5988,W,0.02,107.37,250320,,,D*7B
$GPVTG,107.37,T,,M,0.02,N,0.03,K,D*3B
$GPGGA,033851.000,5104.5755,N,11403.5988,W,2,10,0.83,1078.1,M,-17.5,M,0000,0000*63
$GPGSA,A,3,25,05,29,31,21,12,09,06,02,26,,,1.47,0.83,1.22*08
$GPRMC,033851.000,A,5104.5755,N,11403.5988,W,0.04,37.29,250320,,,D*41
$GPVTG,37.29,T,,M,0.04,N,0.07,K,D*04
$GPGGA,033852.000,5104.5755,N,11403.5988,W,2,10,0.83,1078.1,M,-17.5,M,0000,0000*60
$GPGSA,A,3,25,05,29,31,21,12,09,06,02,26,,,1.47,0.83,1.22*08
$GPGSV,3,1,11,29,67,299,39,05,59,109,22,25,46,210,24,02,38,070,23*77
$GPGSV,3,2,11,46,29,199,35,12,24,178,27,21,19,252,48,26,13,322,34*78
$GPGSV,3,3,11,31,12,290,31,09,07,025,19,06,05,068,20*4F
$GPRMC,033852.000,A,5104.5755,N,11403.5988,W,0.03,76.92,250320,,,D*40
$GPVTG,76.92,T,,M,0.03,N,0.05,K,D*04
$GPGGA,033853.000,5104.5755,N,11403.5988,W,2,10,0.83,1078.1,M,-17.5,M,0000,0000*61
$GPGSA,A,3,25,05,29,31,21,12,09,06,02,26,,,1.47,0.83,1.22*08
$GPRMC,033853.000,A,5104.5755,N,11403.5988,W,0.03,70.57,250320,,,D*4E
$GPVTG,70.57,T,,M,0.03,N,0.05,K,D*0B
$GPGGA,033854.000,5104.5755,N,11403.5987,W,2,10,0.83,1078.1,M,-17.5,M,0000,0000*69
$GPGSA,A,3,25,05,29,31,21,12,09,06,02,26,,,1.47,0.83,1.22*08
$GPRMC,033854.000,A,5104.5755,N,11403.5987,W,0.02,67.23,250320,,,D*42
$GPVTG,67.23,T,,M,0.02,N,0.04,K,D*0E
$GPGGA,033855.000,5104.5755,N,11403.5987,W,2,10,0.83,1078.1,M,-17.5,M,0000,0000*68
$GPGSA,A,3,25,05,29,31,21,12,09,06,02,26,,,1.47,0.83,1.22*08
$GPRMC,033855.000,A,5104.5755,N,11403.5987,W,0.02,69.87,250320,,,D*43
$GPVTG,69.87,T,,M,0.02,N,0.04,K,D*0E
$GPGGA,033856.000,5104.5755,N,11403.5987,W,2,10,0.83,1078.1,M,-17.5,M,0000,0000*6B
$GPGSA,A,3,25,05,29,31,21,12,09,06,02,26,,,1.47,0.83,1.22*08
$GPRMC,033856.000,A,5104.5755,N,11403.5987,W,0.05,36.89,250320,,,D*43
$GPVTG,36.89,T,,M,0.05,N,0.10,K,D*08
$GPGGA,033857.000,5104.5755,N,11403.5987,W,2,10,0.83,1078.1,M,-17.5,M,0000,0000*6A
$GPGSA,A,3,25,05,29,31,21,12,09,06,02,26,,,1.47,0.83,1.22*08
$GPGSV,3,1,11,29,67,299,39,05,59,109,21,25,46,210,22,02,37,070,20*7E
$GPGSV,3,2,11,46,29,199,35,12,24,178,27,21,19,252,48,26,13,322,34*78
$GPGSV,3,3,11,31,12,290,29,09,07,025,20,06,05,068,20*4C
$GPRMC,033857.000,A,5104.5755,N,11403.5987,W,0.01,7.60,250320,,,D*73
$GPVTG,7.60,T,,M,0.01,N,0.03,K,D*3B
$GPGGA,033858.000,5104.5755,N,11403.5987,W,2,10,0.83,1078.1,M,-17.5,M,0000,0000*65
$GPGSA,A,3,25,05,29,31,21,12,09,06,02,26,,,1.47,0.83,1.22*08
$GPRMC,033858.000,A,5104.5755,N,11403.5987,W,0.00,310.73,250320,,,D*7A
$GPVTG,310.73,T,,M,0.00,N,0.01,K,D*3F
$GPGGA,033859.000,5104.5755,N,11403.5987,W,2,10,0.83,1078.1,M,-17.5,M,0000,0000*64
$GPGSA,A,3,25,05,29,31,21,12,09,06,02,26,,,1.47,0.83,1.22*08
$GPRMC,033859.000,A,5104.5755,N,11403.5987,W,0.01,299.22,250320,,,D*7E
$GPVTG,299.22,T,,M,0.01,N,0.01,K,D*3A
$GPGGA,033900.000,5104.5755,N,11403.5987,W,2,10,0.83,1078.1,M,-17.5,M,0000,0000*69
$GPGSA,A,3,25,05,29,31,21,12,09,06,02,26,,,1.47,0.83,1.22*08
$GPRMC,033900.000,A,5104.5755,N,11403.5987,W,0.01,66.32,250320,,,D*40
$GPVTG,66.32,T,,M,0.01,N,0.02,K,D*0A
$GPGGA,033901.000,5104.5755,N,11403.5987,W,2,10,0.83,1078.1,M,-17.5,M,0000,0000*68
$GPGSA,A,3,25,05,29,31,21,12,09,06,02,26,,,1.47,0.83,1.22*08
$GPRMC,033901.000,A,5104.5755,N,11403.5987,W,0.01,80.92,250320,,,D*43
$GPVTG,80.92,T,,M,0.01,N,0.02,K,D*08
$GPGGA,033902.000,5104.5755,N,11403.5987,W,2,09,0.91,1078.1,M,-17.5,M,0000,0000*60
$GPGSA,A,3,25,05,29,31,21,12,09,02,26,,,,1.68,0.91,1.41*05
$GPGSV,3,1,11,29,67,299,39,05,59,108,20,25,46,210,22,02,37,070,19*74
$GPGSV,3,2,11,46,29,199,35,12,24,178,26,21,19,252,48,26,13,322,34*79
$GPGSV,3,3,11,31,12,290,28,09,07,025,19,06,04,068,19*4C
$GPRMC,033902.000,A,5104.5755,N,11403.5987,W,0.04,30.68,250320,,,D*4B
$GPVTG,30.68,T,,M,0.04,N,0.07,K,D*06
$GPGGA,033903.000,5104.5755,N,11403.5987,W,2,09,0.91,1078.1,M,-17.5,M,0000,0000*61
$GPGSA,A,3,25,05,29,31,21,12,09,02,26,,,,1.68,0.91,1.41*05
$GPRMC,033903.000,A,5104.5755,N,11403.5987,W,0.02,42.30,250320,,,D*44
$GPVTG,42.30,T,,M,0.02,N,0.03,K,D*0C
$GPGGA,033904.000,5104.5755,N,11403.5987,W,2,09,0.91,1078.1,M,-17.5,M,0000,0000*66
$GPGSA,A,3,25,05,29,31,21,12,09,02,26,,,,1.68,0.91,1.41*05
$GPRMC,033904.000,A,5104.5755,N,11403.5987,W,0.01,63.05,250320,,,D*45
$GPVTG,63.05,T,,M,0.01,N,0.02,K,D*0B
$GPGGA,033905.000,5104.5755,N,11403.5987,W,2,09,0.91,1078.1,M,-17.5,M,0000,0000*67
$GPGSA,A,3,25,05,29,31,21,12,09,02,26,,,,1.68,0.91,1.41*05
$GPRMC,033905.000,A,5104.5755,N,11403.5987,W,0.02,66.73,250320,,,D*43
$GPVTG,66.73,T,,M,0.02,N,0.03,K,D*0D
$GPGGA,033906.000,5104.5755,N,11403.5987,W,2,09,0.91,1078.1,M,-17.5,M,0000,0000*64
$GPGSA,A,3,25,05,29,31,21,12,09,02,26,,,,1.68,0.91,1.41*05
$GPRMC,033906.000,A,5104.5755,N,11403.5987,W,0.03,20.51,250320,,,D*43
$GPVTG,20.51,T,,M,0.03,N,0.06,K,D*0B
$GPGGA,033907.000,5104.5756,N,11403.5985,W,2,09,0.91,1078.0,M,-17.5,M,0000,0000*65
$GPGSA,A,3,25,05,29,31,21,12,09,02,26,,,,1.68,0.91,1.41*05
$GPGSV,3,1,11,29,67,299,39,05,59,108,22,25,46,210,22,02,37,070,20*7C
$GPGSV,3,2,11,46,29,199,35,12,24,177,27,21,19,252,48,26,13,322,35*76
$GPGSV,3,3,11,31,12,290,27,09,07,025,17,06,04,068,19*4D
$GPRMC,033907.000,A,5104.5756,N,11403.5985,W,0.03,14.99,250320,,,D*40
$GPVTG,14.99,T,,M,0.03,N,0.06,K,D*08
$GPGGA,033908.000,5104.5757,N,11403.5983,W,2,09,0.91,1077.9,M,-17.5,M,0000,0000*6B
$GPGSA,A,3,25,05,29,31,21,12,09,02,26,,,,1.68,0.91,1.41*05
$GPRMC,033908.000,A,5104.5757,N,11403.5983,W,0.04,48.70,250320,,,D*41
$GPVTG,48.70,T,,M,0.04,N,0.07,K,D*00
$GPGGA,033909.000,5104.5757,N,11403.5980,W,2,09,0.91,1077.9,M,-17.5,M,0000,0000*69
$GPGSA,A,3,25,05,29,31,21,12,09,02,26,,,,1.68,0.91,1.41*05
$GPRMC,033909.000,A,5104.5757,N,11403.5980,W,0.03,92.11,250320,,,D*44
$GPVTG,92.11,T,,M,0.03,N,0.05,K,D*05
$GPGGA,033910.000,5104.5757,N,11403.5979,W,2,09,0.91,1077.8,M,-17.5,M,0000,0000*66
$GPGSA,A,3,25,05,29,31,21,12,09,02,26,,,,1.68,0.91,1.41*05
$GPRMC,033910.000,A,5104.5757,N,11403.5979,W,0.01,46.53,250320,,,D*47
$GPVTG,46.53,T,,M,0.01,N,0.01,K,D*0C
$GPGGA,033911.000,5104.5757,N,11403.5979,W,2,09,0.91,1078.0,M,-17.5,M,0000,0000*60
$GPGSA,A,3,25,05,29,31,21,12,09,02,26,,,,1.68,0.91,1.41*05
$GPRMC,033911.000,A,5104.5757,N,11403.5979,W,0.01,47.08,250320,,,D*49
$GPVTG,47.08,T,,M,0.01,N,0.02,K,D*00
$GPGGA,033912.000,5104.5758,N,11403.5981,W,2,09,0.91,1078.2,M,-17.5,M,0000,0000*69
$GPGSA,A,3,25,05,29,31,21,12,09,02,26,,,,1.68,0.91,1.41*05
$GPGSV,3,1,11,29,67,299,39,05,59,108,22,25,46,210,20,02,37,070,22*7C
$GPGSV,3,2,11,46,29,199,35,12,24,177,26,21,19,252,48,26,13,322,35*77
$GPGSV,3,3,11,31,12,290,26,09,07,025,15,06,04,068,19*4E
$GPRMC,033912.000,A,5104.5758,N,11403.5981,W,0.03,355.93,250320,,,D*72
$GPVTG,355.93,T,,M,0.03,N,0.06,K,D*34
$GPGGA,033913.000,5104.5759,N,11403.5980,W,2,09,0.91,1078.2,M,-17.5,M,0000,0000*68
$GPGSA,A,3,25,05,29,31,21,12,09,02,26,,,,1.68,0.91,1.41*05
$GPRMC,033913.000,A,5104.5759,N,11403.5980,W,0.01,23.45,250320,,,D*48
$GPVTG,23.45,T,,M,0.01,N,0.02,K,D*0B
$GPGGA,033914.000,5104.5760,N,11403.5980,W,2,09,0.91,1078.2,M,-17.5,M,0000,0000*65
$GPGSA,A,3,25,05,29,31,21,12,09,02,26,,,,1.68,0.91,1.41*05
$GPRMC,033914.000,A,5104.5760,N,11403.5980,W,0.02,343.60,250320,,,D*74
$GPVTG,343.60,T,,M,0.02,N,0.04,K,D*3C
$GPGGA,033915.000,5104.5760,N,11403.5980,W,2,08,1.03,1078.3,M,-17.5,M,0000,0000*6E
$GPGSA,A,3,25,05,29,31,21,12,02,26,,,,,1.95,1.03,1.66*01
$GPRMC,033915.000,A,5104.5760,N,11403.5980,W,0.01,195.77,250320,,,D*79
$GPVTG,195.77,T,,M,0.01,N,0.01,K,D*35
$GPGGA,033916.000,5104.5760,N,11403.5980,W,2,09,0.91,1078.3,M,-17.5,M,0000,0000*66
$GPGSA,A,3,25,05,29,31,21,12,09,02,26,,,,1.68,0.91,1.41*05
$GPRMC,033916.000,A,5104.5760,N,11403.5980,W,0.02,43.21,250320,,,D*40
$GPVTG,43.21,T,,M,0.02,N,0.04,K,D*0A
$GPGGA,033917.000,5104.5760,N,11403.5981,W,2,08,1.03,1078.5,M,-17.5,M,0000,0000*6B
$GPGSA,A,3,25,05,29,31,21,12,02,26,,,,,1.95,1.03,1.65*02
$GPGSV,3,1,11,29,67,299,39,05,59,108,23,25,46,210,19,02,37,070,22*77
$GPGSV,3,2,11,46,29,199,35,12,24,177,26,21,20,253,48,26,13,322,35*7C
$GPGSV,3,3,11,31,12,290,27,09,07,025,14,06,04,068,19*4E
$GPRMC,033917.000,A,5104.5760,N,11403.5981,W,0.01,341.24,250320,,,D*77
$GPVTG,341.24,T,,M,0.01,N,0.03,K,D*3A
$GPGGA,033918.000,5104.5760,N,11403.5980,W,2,09,0.91,1078.7,M,-17.5,M,0000,0000*6C
$GPGSA,A,3,25,05,29,31,21,12,09,02,26,,,,1.68,0.91,1.41*05
$GPRMC,033918.000,A,5104.5760,N,11403.5980,W,0.01,23.93,250320,,,D*42
$GPVTG,23.93,T,,M,0.01,N,0.02,K,D*00
$GPGGA,033919.000,5104.5761,N,11403.5980,W,2,09,0.91,1078.8,M,-17.5,M,0000,0000*63
$GPGSA,A,3,25,05,29,31,21,12,09,02,26,,,,1.68,0.91,1.41*05
$GPRMC,033919.000,A,5104.5761,N,11403.5980,W,0.02,318.73,250320,,,D*74
$GPVTG,318.73,T,,M,0.02,N,0.03,K,D*37
$GPGGA,033920.000,5104.5760,N,11403.5978,W,2,08,1.03,1078.9,M,-17.5,M,0000,0000*65
$GPGSA,A,3,25,05,29,31,21,12,02,26,,,,,1.94,1.03,1.65*03
$GPRMC,033920.000,A,5104.5760,N,11403.5978,W,0.01,165.62,250320,,,D*73
$GPVTG,165.62,T,,M,0.01,N,0.02,K,D*3D
$GPGGA,033921.000,5104.5760,N,11403.5982,W,2,08,1.03,1079.2,M,-17.5,M,0000,0000*6B
$GPGSA,A,3,25,05,29,31,21,12,02,26,,,,,1.94,1.03,1.65*03
$GPRMC,033921.000,A,5104.5760,N,11403.5982,W,0.03,228.09,250320,,,D*72
$GPVTG,228.09,T,,M,0.03,N,0.06,K,D*3C
$GPGGA,033922.000,5104.5760,N,11403.5981,W,2,08,1.03,1079.3,M,-17.5,M,0000,0000*6A
$GPGSA,A,3,25,05,29,31,21,12,02,26,,,,,1.95,1.03,1.65*02
$GPGSV,3,1,11,29,67,299,39,05,59,108,24,25,46,210,18,02,37,070,24*77
$GPGSV,3,2,11,46,29,199,35,12,24,177,26,21,20,253,49,26,13,322,36*7E
$GPGSV,3,3,11,31,12,290,27,09,07,025,12,06,04,068,19*48
$GPRMC,033922.000,A,5104.5760,N,11403.5981,W,0.01,71.79,250320,,,D*49
$GPVTG,71.79,T,,M,0.01,N,0.02,K,D*03
$GPGGA,033923.000,5104.5759,N,11403.5981,W,2,08,1.03,1079.5,M,-17.5,M,0000,0000*67
$GPGSA,A,3,25,05,29,31,21,12,02,26,,,,,1.94,1.03,1.65*03
$GPRMC,033923.000,A,5104.5759,N,11403.5981,W,0.00,89.31,250320,,,D*48
$GPVTG,89.31,T,,M,0.00,N,0.01,K,D*0A
$GPGGA,033924.000,5104.5759,N,11403.5980,W,2,07,1.10,1079.6,M,-17.5,M,0000,0000*6F
$GPGSA,A,3,05,29,31,21,12,02,26,,,,,,2.07,1.10,1.76*0D
$GPRMC,033924.000,A,5104.5759,N,11403.5980,W,0.02,182.32,250320,,,D*75
$GPVTG,182.32,T,,M,0.02,N,0.03,K,D*33
$GPGGA,033925.000,5104.5759,N,11403.5980,W,2,08,1.03,1079.6,M,-17.5,M,0000,0000*63
$GPGSA,A,3,25,05,29,31,21,12,02,26,,,,,1.95,1.03,1.65*02
$GPRMC,033925.000,A,5104.5759,N,11403.5980,W,0.03,280.87,250320,,,D*7A
$GPVTG,280.87,T,,M,0.03,N,0.06,K,D*38
$GPGGA,033926.000,5104.5759,N,11403.5980,W,2,07,1.10,1079.6,M,-17.5,M,0000,0000*6D
$GPGSA,A,3,05,29,31,21,12,02,26,,,,,,2.07,1.10,1.76*0D
$GPRMC,033926.000,A,5104.5759,N,11403.5980,W,0.02,306.40,250320,,,D*7C
$GPVTG,306.40,T,,M,0.02,N,0.04,K,D*3F
$GPGGA,033927.000,5104.5759,N,11403.5980,W,2,08,1.03,1079.7,M,-17.5,M,0000,0000*60
$GPGSA,A,3,25,05,29,31,21,12,02,26,,,,,1.94,1.03,1.65*03
$GPGSV,3,1,11,29,67,299,39,05,59,108,24,25,46,210,18,02,37,070,26*75
$GPGSV,3,2,11,46,29,199,35,12,24,177,26,21,20,253,49,26,13,322,36*7E
$GPGSV,3,3,11,31,12,290,26,09,07,025,12,06,04,068,19*49
$GPRMC,033927.000,A,5104.5759,N,11403.5980,W,0.02,269.13,250320,,,D*73
$GPVTG,269.13,T,,M,0.02,N,0.03,K,D*36
$GPGGA,033928.000,5104.5759,N,11403.5981,W,2,07,1.10,1079.7,M,-17.5,M,0000,0000*63
$GPGSA,A,3,05,29,31,21,12,02,26,,,,,,2.07,1.10,1.76*0D
$GPRMC,033928.000,A,5104.5759,N,11403.5981,W,0.01,297.07,250320,,,D*7A
$GPVTG,297.07,T,,M,0.01,N,0.02,K,D*30
$GPGGA,033929.000,5104.5759,N,11403.5981,W,2,09,0.90,1079.7,M,-17.5,M,0000,0000*65
$GPGSA,A,3,25,05,29,31,21,12,09,02,26,,,,1.68,0.90,1.41*04
$GPRMC,033929.000,A,5104.5759,N,11403.5981,W,0.03,286.88,250320,,,D*7E
$GPVTG,286.88,T,,M,0.03,N,0.06,K,D*31
$GPGGA,033930.000,5104.5759,N,11403.5981,W,2,09,0.90,1079.7,M,-17.5,M,0000,0000*6D
$GPGSA,A,3,25,05,29,31,21,12,09,02,26,,,,1.67,0.90,1.41*0B
$GPRMC,033930.000,A,5104.5759,N,11403.5981,W,0.03,292.05,250320,,,D*76
$GPVTG,292.05,T,,M,0.03,N,0.05,K,D*32
$GPGGA,033931.000,5104.5759,N,11403.5981,W,2,09,0.90,1079.7,M,-17.5,M,0000,0000*6C
$GPGSA,A,3,25,05,29,31,21,12,09,02,26,,,,1.67,0.90,1.41*0B
$GPRMC,033931.000,A,5104.5759,N,11403.5981,W,0.02,255.57,250320,,,D*7A
$GPVTG,255.57,T,,M,0.02,N,0.03,K,D*39
$GPGGA,033932.000,5104.5759,N,11403.5981,W,2,09,0.90,1079.7,M,-17.5,M,0000,0000*6F
$GPGSA,A,3,25,05,29,31,21,12,09,02,26,,,,1.68,0.90,1.41*04
$GPGSV,3,1,11,29,67,299,39,05,59,108,24,25,46,210,20,02,37,070,27*7F
$GPGSV,3,2,11,46,29,199,35,12,24,177,25,21,20,253,49,26,13,322,37*7C
$GPGSV,3,3,11,31,12,290,28,09,07,025,17,06,04,068,18*43
$GPRMC,033932.000,A,5104.5759,N,11403.5981,W,0.03,299.95,250320,,,D*76
$GPVTG,299.95,T,,M,0.03,N,0.06,K,D*33
$GPGGA,033933.000,5104.5759,N,11403.5981,W,2,09,0.90,1079.7,M,-17.5,M,0000,0000*6E
$GPGSA,A,3,25,05,29,31,21,12,09,02,26,,,,1.68,0.90,1.41*04
$GPRMC,033933.000,A,5104.5759,N,11403.5981,W,0.03,241.13,250320,,,D*7C
$GPVTG,241.13,T,,M,0.03,N,0.05,K,D*3B
$GPGGA,033934.000,5104.5759,N,11403.5981,W,2,09,0.90,1079.7,M,-17.5,M,0000,0000*69
$GPGSA,A,3,25,05,29,31,21,12,09,02,26,,,,1.67,0.90,1.41*0B
$GPRMC,033934.000,A,5104.5759,N,11403.5981,W,0.04,238.40,250320,,,D*74
$GPVTG,238.40,T,,M,0.04,N,0.07,K,D*36
$GPGGA,033935.000,5104.5759,N,11403.5981,W,2,09,0.90,1079.7,M,-17.5,M,0000,0000*68
$GPGSA,A,3,25,05,29,31,21,12,09,02,26,,,,1.67,0.90,1.41*0B
$GPRMC,033935.000,A,5104.5759,N,11403.5981,W,0.01,306.82,250320,,,D*72
$GPVTG,306.82,T,,M,0.01,N,0.02,K,D*34
$GPGGA,033936.000,5104.5758,N,11403.5982,W,2,09,0.90,1079.9,M,-17.5,M,0000,0000*67
$GPGSA,A,3,25,05,29,31,21,12,09,02,26,,,,1.67,0.90,1.41*0B
$GPRMC,033936.000,A,5104.5758,N,11403.5982,W,0.03,199.01,250320,,,D*7E
$GPVTG,199.01,T,,M,0.03,N,0.06,K,D*3D
$GPGGA,033937.000,5104.5758,N,11403.5983,W,2,09,0.90,1080.1,M,-17.5,M,0000,0000*69
$GPGSA,A,3,25,05,29,31,21,12,09,02,26,,,,1.67,0.90,1.41*0B
$GPGSV,3,1,11,29,67,299,39,05,59,108,24,25,46,210,24,02,37,070,28*74
$GPGSV,3,2,11,46,29,199,36,12,24,177,24,21,20,253,49,26,13,322,37*7E
$GPGSV,3,3,11,31,12,290,27,09,07,025,19,06,04,068,19*43
$GPRMC,033937.000,A,5104.5758,N,11403.5983,W,0.01,140.00,250320,,,D*79
$GPVTG,140.00,T,,M,0.01,N,0.02,K,D*3E
$GPGGA,033938.000,5104.5758,N,11403.5984,W,2,09,0.90,1080.3,M,-17.5,M,0000,0000*63
$GPGSA,A,3,25,05,29,31,21,12,09,02,26,,,,1.67,0.90,1.41*0B
$GPRMC,033938.000,A,5104.5758,N,11403.5984,W,0.01,203.66,250320,,,D*75
$GPVTG,203.66,T,,M,0.01,N,0.02,K,D*3A
$GPGGA,033939.000,5104.5757,N,11403.5985,W,2,09,0.90,1080.5,M,-17.5,M,0000,0000*6A
$GPGSA,A,3,25,05,29,31,21,12,09,02,26,,,,1.67,0.90,1.41*0B
$GPRMC,033939.000,A,5104.5757,N,11403.5985,W,0.02,223.52,250320,,,D*7C
$GPVTG,223.52,T,,M,0.02,N,0.05,K,D*3B
$GPGGA,033940.000,5104.5757,N,11403.5986,W,2,09,0.90,1080.5,M,-17.5,M,0000,0000*67
$GPGSA,A,3,25,05,29,31,21,12,09,02,26,,,,1.67,0.90,1.41*0B
$GPRMC,033940.000,A,5104.5757,N,11403.5986,W,0.01,189.50,250320,,,D*73
$GPVTG,189.50,T,,M,0.01,N,0.01,K,D*3D
$GPGGA,033941.000,5104.5757,N,11403.5987,W,2,09,0.90,1080.6,M,-17.5,M,0000,0000*64
$GPGSA,A,3,25,05,29,31,21,12,09,02,26,,,,1.67,0.90,1.41*0B
$GPRMC,033941.000,A,5104.5757,N,11403.5987,W,0.01,262.68,250320,,,D*7E
$GPVTG,262.68,T,,M,0.01,N,0.02,K,D*33
$GPGGA,033942.000,5104.5757,N,11403.5989,W,2,09,0.90,1080.7,M,-17.5,M,0000,0000*68
$GPGSA,A,3,25,05,29,31,21,12,09,02,26,,,,1.67,0.90,1.41*0B
$GPGSV,3,1,11,29,67,299,40,05,59,108,24,25,46,210,25,02,37,070,28*7B
$GPGSV,3,2,11,46,29,199,35,12,24,177,23,21,20,253,49,26,13,322,37*7A
$GPGSV,3,3,11,31,12,290,27,09,07,024,21,06,04,068,20*43
$GPRMC,033942.000,A,5104.5757,N,11403.5989,W,0.03,302.05,250320,,,D*7D
$GPVTG,302.05,T,,M,0.03,N,0.06,K,D*39
$GPGGA,033943.000,5104.5757,N,11403.5990,W,2,09,0.90,1080.8,M,-17.5,M,0000,0000*6E
$GPGSA,A,3,25,05,29,31,21,12,09,02,26,,,,1.67,0.90,1.41*0B
$GPRMC,033943.000,A,5104.5757,N,11403.5990,W,0.01,271.66,250320,,,D*76
$GPVTG,271.66,T,,M,0.01,N,0.03,K,D*3E
$GPGGA,033944.000,5104.5757,N,11403.5990,W,2,09,0.90,1080.8,M,-17.5,M,0000,0000*69
$GPGSA,A,3,25,05,29,31,21,12,09,02,26,,,,1.67,0.90,1.41*0B
$GPRMC,033944.000,A,5104.5757,N,11403.5990,W,0.01,224.21,250320,,,D*72
$GPVTG,224.21,T,,M,0.01,N,0.01,K,D*3F
$GPGGA,033945.000,5104.5757,N,11403.5990,W,2,09,0.90,1080.8,M,-17.5,M,0000,0000*68
$GPGSA,A,3,25,05,29,31,21,12,09,02,26,,,,1.67,0.90,1.41*0B
$GPRMC,033945.000,A,5104.5757,N,11403.5990,W,0.02,34.87,250320,,,D*4F
$GPVTG,34.87,T,,M,0.02,N,0.04,K,D*06
$GPGGA,033946.000,5104.5757,N,11403.5990,W,2,09,0.90,1080.8,M,-17.5,M,0000,0000*6B
$GPGSA,A,3,25,05,29,31,21,12,09,02,26,,,,1.67,0.90,1.41*0B
$GPRMC,033946.000,A,5104.5757,N,11403.5990,W,0.01,306.09,250320,,,D*7B
$GPVTG,306.09,T,,M,0.01,N,0.02,K,D*37
$GPGGA,033947.000,5104.5757,N,11403.5990,W,2,09,0.90,1080.8,M,-17.5,M,0000,0000*6A
$GPGSA,A,3,25,05,29,31,21,12,09,02,26,,,,1.67,0.90,1.41*0B
$GPGSV,3,1,11,29,67,299,40,05,59,108,24,25,46,210,21,02,37,070,28*7F
$GPGSV,3,2,11,46,29,199,35,12,24,177,19,21,20,253,49,26,13,322,37*73
$GPGSV,3,3,11,31,12,290,27,09,07,024,21,06,04,068,20*43
$GPRMC,033947.000,A,5104.5757,N,11403.5990,W,0.00,188.53,250320,,,D*70
$GPVTG,188.53,T,,M,0.00,N,0.01,K,D*3E
$GPGGA,033948.000,5104.5757,N,11403.5990,W,2,09,0.90,1080.8,M,-17.5,M,0000,0000*65
$GPGSA,A,3,25,05,29,31,21,12,09,02,26,,,,1.67,0.90,1.41*0B
$GPRMC,033948.000,A,5104.5757,N,11403.5990,W,0.02,293.57,250320,,,D*70
$GPVTG,293.57,T,,M,0.02,N,0.03,K,D*33
$GPGGA,033949.000,5104.5757,N,11403.5990,W,2,09,0.90,1080.8,M,-17.5,M,0000,0000*64
$GPGSA,A,3,25,05,29,31,21,12,09,02,26,,,,1.67,0.90,1.41*0B
$GPRMC,033949.000,A,5104.5757,N,11403.5990,W,0.01,43.35,250320,,,D*49
$GPVTG,43.35,T,,M,0.01,N,0.02,K,D*0A
$GPGGA,033950.000,5104.5757,N,11403.5990,W,2,09,0.90,1080.8,M,-17.5,M,0000,0000*6C
$GPGSA,A,3,25,05,29,31,21,12,09,02,26,,,,1.67,0.90,1.41*0B
$GPRMC,033950.000,A,5104.5757,N,11403.5990,W,0.01,11.31,250320,,,D*42
$GPVTG,11.31,T,,M,0.01,N,0.02,K,D*09
$GPGGA,033951.000,5104.5757,N,11403.5990,W,2,09,0.90,1080.8,M,-17.5,M,0000,0000*6D
$GPGSA,A,3,25,05,29,31,21,12,09,02,26,,,,1.67,0.90,1.41*0B
$GPRMC,033951.000,A,5104.5757,N,11403.5990,W,0.03,23.86,250320,,,D*4C
$GPVTG,23.86,T,,M,0.03,N,0.05,K,D*01
$GPGGA,033952.000,5104.5757,N,11403.5990,W,2,09,0.90,1080.8,M,-17.5,M,0000,0000*6E
$GPGSA,A,3,25,05,29,31,21,12,09,02,26,,,,1.67,0.90,1.41*0B
$GPGSV,3,1,11,29,67,299,40,05,59,108,24,25,46,210,18,02,37,070,28*75
$GPGSV,3,2,11,46,29,199,35,12,24,177,18,21,20,253,49,26,13,322,37*72
$GPGSV,3,3,11,31,12,290,26,09,07,024,22,06,04,068,20*41
$GPRMC,033952.000,A,5104.5757,N,11403.5990,W,0.01,190.45,250320,,,D*7B
$GPVTG,190.45,T,,M,0.01,N,0.02,K,D*32
$GPGGA,033953.000,5104.5757,N,11403.5990,W,2,09,0.90,1080.8,M,-17.5,M,0000,0000*6F
$GPGSA,A,3,25,05,29,31,21,12,09,02,26,,,,1.67,0.90,1.41*0B
$GPRMC,033953.000,A,5104.5757,N,11403.5990,W,0.01,319.16,250320,,,D*7F
$GPVTG,319.16,T,,M,0.01,N,0.02,K,D*37
$GPGGA,033954.000,5104.5757,N,11403.5990,W,2,09,0.90,1080.8,M,-17.5,M,0000,0000*68
$GPGSA,A,3,25,05,29,31,21,12,09,02,26,,,,1.67,0.90,1.41*0B
$GPRMC,033954.000,A,5104.5757,N,11403.5990,W,0.01,214.98,250320,,,D*72
$GPVTG,214.98,T,,M,0.01,N,0.02,K,D*3D
$GPGGA,033955.000,5104.5757,N,11403.5990,W,2,09,0.90,1080.8,M,-17.5,M,0000,0000*69
$GPGSA,A,3,25,05,29,31,21,12,09,02,26,,,,1.67,0.90,1.41*0B
$GPRMC,033955.000,A,5104.5757,N,11403.5990,W,0.02,153.49,250320,,,D*7C
$GPVTG,153.49,T,,M,0.02,N,0.04,K,D*34
$GPGGA,033956.000,5104.5757,N,11403.5990,W,2,09,0.90,1080.8,M,-17.5,M,0000,0000*6A
$GPGSA,A,3,25,05,29,31,21,12,09,02,26,,,,1.67,0.90,1.41*0B
$GPRMC,033956.000,A,5104.5757,N,11403.5990,W,0.01,49.81,250320,,,D*42
$GPVTG,49.81,T,,M,0.01,N,0.02,K,D*0F
$GPGGA,033957.000,5104.5757,N,11403.5990,W,2,09,0.90,1080.8,M,-17.5,M,0000,0000*6B
$GPGSA,A,3,25,05,29,31,21,12,09,02,26,,,,1.67,0.90,1.41*0B
$GPGSV,3,1,11,29,67,299,40,05,59,108,25,25,46,210,19,02,37,070,28*75
$GPGSV,3,2,11,46,29,199,34,12,24,177,17,21,20,253,49,26,13,322,37*7C
$GPGSV,3,3,11,31,12,290,24,09,07,024,22,06,04,068,20*43
$GPRMC,033957.000,A,5104.5757,N,11403.5990,W,0.01,357.46,250320,,,D*74
$GPVTG,357.46,T,,M,0.01,N,0.02,K,D*38
$GPGGA,033958.000,5104.5757,N,11403.5990,W,2,09,0.90,1080.8,M,-17.5,M,0000,0000*64
$GPGSA,A,3,25,05,29,31,21,12,09,02,26,,,,1.67,0.90,1.41*0B
$GPRMC,033958.000,A,5104.5757,N,11403.5990,W,0.01,343.00,250320,,,D*7C
$GPVTG,343.00,T,,M,0.01,N,0.03,K,D*3E
$GPGGA,033959.000,5104.5757,N,11403.5990,W,2,09,0.90,1080.8,M,-17.5,M,0000,0000*65
$GPGSA,A,3,25,05,29,31,21,12,09,02,26,,,,1.67,0.90,1.41*0B
$GPRMC,033959.000,A,5104.5757,N,11403.5990,W,0.01,315.37,250320,,,D*7A
$GPVTG,315.37,T,,M,0.01,N,0.02,K,D*38
$GPGGA,034000.000,5104.5757,N,11403.5990,W,2,09,0.90,1080.9,M,-17.5,M,0000,0000*66
$GPGSA,A,3,25,05,29,31,21,12,09,02,26,,,,1.67,0.90,1.41*0B
$GPRMC,034000.000,A,5104.5757,N,11403.5990,W,0.04,39.62,250320,,,D*40
$GPVTG,39.62,T,,M,0.04,N,0.07,K,D*05
$GPGGA,034001.000,5104.5757,N,11403.5990,W,2,09,0.90,1080.9,M,-17.5,M,0000,0000*67
$GPGSA,A,3,25,05,29,31,21,12,09,02,26,,,,1.67,0.90,1.40*0A
$GPRMC,034001.000,A,5104.5757,N,11403.5990,W,0.01,21.13,250320,,,D*4B
$GPVTG,21.13,T,,M,0.01,N,0.02,K,D*0A
$GPGGA,034002.000,5104.5757,N,11403.5990,W,2,09,0.90,1080.9,M,-17.5,M,0000,0000*64
$GPGSA,A,3,25,05,29,31,21,12,09,02,26,,,,1.67,0.90,1.41*0B
$GPGSV,3,1,11,29,67,299,40,05,59,108,27,25,46,210,22,02,37,070,28*7F
$GPGSV,3,2,11,46,29,199,35,12,24,177,17,21,20,253,49,26,13,322,36*7C
$GPGSV,3,3,11,31,12,290,23,09,07,024,21,06,04,068,20*47
$GPRMC,034002.000,A,5104.5757,N,11403.5990,W,0.03,71.49,250320,,,D*40
$GPVTG,71.49,T,,M,0.03,N,0.06,K,D*06
$GPGGA,034003.000,5104.5757,N,11403.5990,W,2,09,0.90,1080.9,M,-17.5,M,0000,0000*65
$GPGSA,A,3,25,05,29,31,21,12,09,02,26,,,,1.67,0.90,1.41*0B
$GPRMC,034003.000,A,5104.5757,N,11403.5990,W,0.02,91.65,250320,,,D*40
$GPVTG,91.65,T,,M,0.02,N,0.05,K,D*04
$GPGGA,034004.000,5104.5757,N,11403.5990,W,2,09,0.90,1080.9,M,-17.5,M,0000,0000*62
$GPGSA,A,3,25,05,29,31,21,12,09,02,26,,,,1.67,0.90,1.41*0B
$GPRMC,034004.000,A,5104.5757,N,11403.5990,W,0.05,94.81,250320,,,D*4F
$GPVTG,94.81,T,,M,0.05,N,0.09,K,D*00
$GPGGA,034005.000,5104.5757,N,11403.5990,W,2,09,0.90,1080.9,M,-17.5,M,0000,0000*63
$GPGSA,A,3,25,05,29,31,21,12,09,02,26,,,,1.67,0.90,1.41*0B
$GPRMC,034005.000,A,5104.5757,N,11403.5990,W,0.02,48.70,250320,,,D*46
$GPVTG,48.70,T,,M,0.02,N,0.05,K,D*04
$GPGGA,034006.000,5104.5757,N,11403.5990,W,2,09,0.90,1080.9,M,-17.5,M,0000,0000*60
$GPGSA,A,3,25,05,29,31,21,12,09,02,26,,,,1.67,0.90,1.41*0B
$GPRMC,034006.000,A,5104.5757,N,11403.5990,W,0.02,16.10,250320,,,D*48
$GPVTG,16.10,T,,M,0.02,N,0.04,K,D*08
$GPGGA,034007.000,5104.5757,N,11403.5990,W,2,09,0.90,1080.9,M,-17.5,M,0000,0000*61
$GPGSA,A,3,25,05,29,31,21,12,09,02,26,,,,1.67,0.90,1.41*0B
$GPGSV,3,1,11,29,67,299,40,05,59,108,28,25,46,210,23,02,37,070,27*7E
$GPGSV,3,2,11,46,29,199,35,12,24,177,17,21,20,253,49,26,13,322,36*7C
$GPGSV,3,3,11,31,12,290,24,09,07,024,20,06,04,068,19*4B
$GPRMC,034007.000,A,5104.5757,N,11403.5990,W,0.02,11.35,250320,,,D*49
$GPVTG,11.35,T,,M,0.02,N,0.03,K,D*0F
$GPGGA,034008.000,5104.5757,N,11403.5990,W,2,09,0.90,1080.9,M,-17.5,M,0000,0000*6E
$GPGSA,A,3,25,05,29,31,21,12,09,02,26,,,,1.67,0.90,1.41*0B
$GPRMC,034008.000,A,5104.5757,N,11403.5990,W,0.01,42.04,250320,,,D*41
$GPVTG,42.04,T,,M,0.01,N,0.03,K,D*08
$GPGGA,034009.000,5104.5757,N,11403.5990,W,2,09,0.90,1080.9,M,-17.5,M,0000,0000*6F
$GPGSA,A,3,25,05,29,31,21,12,09,02,26,,,,1.67,0.90,1.41*0B
$GPRMC,034009.000,A,5104.5757,N,11403.5990,W,0.02,279.85,250320,,,D*70
$GPVTG,279.85,T,,M,0.02,N,0.04,K,D*3F
$GPGGA,034010.000,5104.5757,N,11403.5990,W,2,09,0.90,1080.9,M,-17.5,M,0000,0000*67
$GPGSA,A,3,25,05,29,31,21,12,09,02,26,,,,1.67,0.90,1.41*0B
$GPRMC,034010.000,A,5104.5757,N,11403.5990,W,0.02,297.30,250320,,,D*76
$GPVTG,297.30,T,,M,0.02,N,0.03,K,D*36
$GPGGA,034011.000,5104.5757,N,11403.5990,W,2,09,0.90,1080.9,M,-17.5,M,0000,0000*66
$GPGSA,A,3,25,05,29,31,21,12,09,02,26,,,,1.67,0.90,1.41*0B
$GPRMC,034011.000,A,5104.5757,N,11403.5990,W,0.02,244.18,250320,,,D*73
$GPVTG,244.18,T,,M,0.02,N,0.04,K,D*35
$GPGGA,034012.000,5104.5757,N,11403.5990,W,2,09,0.90,1080.9,M,-17.5,M,0000,0000*65
$GPGSA,A,3,25,05,29,31,21,12,09,02,26,,,,1.67,0.90,1.41*0B
$GPGSV,3,1,11,29,67,299,40,05,59,107,28,25,46,210,19,02,37,070,27*78
$GPGSV,3,2,11,46,29,199,35,12,24,177,18,21,20,253,49,26,13,322,36*73
$GPGSV,3,3,11,31,12,290,23,09,07,024,20,06,04,068,18*4D
$GPRMC,034012.000,A,5104.5757,N,11403.5990,W,0.02,279.75,250320,,,D*75
$GPVTG,279.75,T,,M,0.02,N,0.04,K,D*30
$GPGGA,034013.000,5104.5757,N,11403.5990,W,2,09,0.90,1080.9,M,-17.5,M,0000,0000*64
$GPGSA,A,3,25,05,29,31,21,12,09,02,26,,,,1.67,0.90,1.40*0A
$GPRMC,034013.000,A,5104.5757,N,11403.5990,W,0.02,101.59,250320,,,D*76
$GPVTG,101.59,T,,M,0.02,N,0.03,K,D*35
$GPGGA,034014.000,5104.5757,N,11403.5990,W,2,09,0.90,1080.9,M,-17.5,M,0000,0000*63
$GPGSA,A,3,25,05,29,31,21,12,09,02,26,,,,1.67,0.90,1.41*0B
$GPRMC,034014.000,A,5104.5757,N,11403.5990,W,0.02,48.36,250320,,,D*44
$GPVTG,48.36,T,,M,0.02,N,0.04,K,D*07
$GPGGA,034015.000,5104.5757,N,11403.5990,W,2,09,0.90,1080.9,M,-17.5,M,0000,0000*62
$GPGSA,A,3,25,05,29,31,21,12,09,02,26,,,,1.67,0.90,1.40*0A
$GPRMC,034015.000,A,5104.5757,N,11403.5990,W,0.04,70.82,250320,,,D*47
$GPVTG,70.82,T,,M,0.04,N,0.07,K,D*06
$GPGGA,034016.000,5104.5757,N,11403.5990,W,2,09,0.90,1080.9,M,-17.5,M,0000,0000*61
$GPGSA,A,3,25,05,29,31,21,12,09,02,26,,,,1.67,0.90,1.40*0A
$GPRMC,034016.000,A,5104.5757,N,11403.5990,W,0.01,19.79,250320,,,D*4A
$GPVTG,19.79,T,,M,0.01,N,0.01,K,D*0E
$GPGGA,034017.000,5104.5757,N,11403.5990,W,2,09,0.90,1080.9,M,-17.5,M,0000,0000*60
$GPGSA,A,3,25,05,29,31,21,12,09,02,26,,,,1.67,0.90,1.40*0A
$GPGSV,3,1,11,29,67,299,40,05,59,107,29,25,46,210,18,02,37,070,26*79
$GPGSV,3,2,11,46,29,199,35,12,23,177,20,21,20,253,49,26,13,322,36*7F
$GPGSV,3,3,11,31,12,290,21,09,07,024,18,06,04,068,17*4B
$GPRMC,034017.000,A,5104.5757,N,11403.5990,W,0.00,106.58,250320,,,D*76
$GPVTG,106.58,T,,M,0.00,N,0.01,K,D*33
$GPGGA,034018.000,5104.5757,N,11403.5990,W,2,09,0.90,1080.9,M,-17.5,M,0000,0000*6F
$GPGSA,A,3,25,05,29,31,21,12,09,02,26,,,,1.67,0.90,1.41*0B
$GPRMC,034018.000,A,5104.5757,N,11403.5990,W,0.02,47.68,250320,,,D*4C
$GPVTG,47.68,T,,M,0.02,N,0.04,K,D*03
$GPGGA,034019.000,5104.5756,N,11403.5988,W,2,09,0.90,1081.0,M,-17.5,M,0000,0000*6E
$GPGSA,A,3,25,05,29,31,21,12,09,02,26,,,,1.67,0.90,1.40*0A
$GPRMC,034019.000,A,5104.5756,N,11403.5988,W,0.03,141.54,250320,,,D*7C
$GPVTG,141.54,T,,M,0.03,N,0.06,K,D*38
$GPGGA,034020.000,5104.5756,N,11403.5986,W,2,08,0.93,1081.1,M,-17.5,M,0000,0000*69
$GPGSA,A,3,05,29,31,21,12,09,02,26,,,,,1.71,0.93,1.43*0A
$GPRMC,034020.000,A,5104.5756,N,11403.5986,W,0.03,90.54,250320,,,D*45
$GPVTG,90.54,T,,M,0.03,N,0.05,K,D*06
$GPGGA,034021.000,5104.5757,N,11403.5986,W,2,09,0.90,1081.2,M,-17.5,M,0000,0000*68
$GPGSA,A,3,25,05,29,31,21,12,09,02,26,,,,1.67,0.90,1.41*0B
$GPRMC,034021.000,A,5104.5757,N,11403.5986,W,0.01,260.22,250320,,,D*7B
$GPVTG,260.22,T,,M,0.01,N,0.01,K,D*3C
$GPGGA,034022.000,5104.5756,N,11403.5985,W,2,08,0.93,1081.3,M,-17.5,M,0000,0000*6A
$GPGSA,A,3,05,29,31,21,12,09,02,26,,,,,1.71,0.93,1.43*0A
$GPGSV,3,1,11,29,67,299,40,05,59,107,29,25,46,210,15,02,37,070,26*74
$GPGSV,3,2,11,46,29,199,34,12,23,177,22,21,20,253,49,26,13,322,36*7C
$GPGSV,3,3,11,31,12,290,21,09,07,024,16,06,04,068,17*45
$GPRMC,034022.000,A,5104.5756,N,11403.5985,W,0.02,185.49,250320,,,D*7C
$GPVTG,185.49,T,,M,0.02,N,0.04,K,D*3F
$GPGGA,034023.000,5104.5756,N,11403.5985,W,2,09,0.90,1081.3,M,-17.5,M,0000,0000*69
$GPGSA,A,3,25,05,29,31,21,12,09,02,26,,,,1.67,0.90,1.40*0A
$GPRMC,034023.000,A,5104.5756,N,11403.5985,W,0.02,110.17,250320,,,D*7A
$GPVTG,110.17,T,,M,0.02,N,0.04,K,D*38
$GPGGA,034024.000,5104.5756,N,11403.5985,W,2,08,0.93,1081.3,M,-17.5,M,0000,0000*6C
$GPGSA,A,3,05,29,31,21,12,09,02,26,,,,,1.71,0.93,1.43*0A
$GPRMC,034024.000,A,5104.5756,N,11403.5985,W,0.01,187.65,250320,,,D*75
$GPVTG,187.65,T,,M,0.01,N,0.02,K,D*36
$GPGGA,034025.000,5104.5756,N,11403.5985,W,2,09,0.90,1081.3,M,-17.5,M,0000,0000*6F
$GPGSA,A,3,25,05,29,31,21,12,09,02,26,,,,1.67,0.90,1.40*0A
$GPRMC,034025.000,A,5104.5756,N,11403.5985,W,0.01,85.22,250320,,,D*44
$GPVTG,85.22,T,,M,0.01,N,0.01,K,D*05
$GPGGA,034026.000,5104.5756,N,11403.5985,W,2,08,0.93,1081.3,M,-17.5,M,0000,0000*6E
$GPGSA,A,3,05,29,31,21,12,09,02,26,,,,,1.71,0.93,1.43*0A
$GPRMC,034026.000,A,5104.5756,N,11403.5985,W,0.03,158.77,250320,,,D*74
$GPVTG,158.77,T,,M,0.03,N,0.05,K,D*32
$GPGGA,034027.000,5104.5756,N,11403.5985,W,2,08,0.93,1081.3,M,-17.5,M,0000,0000*6F
$GPGSA,A,3,05,29,31,21,12,09,02,26,,,,,1.71,0.93,1.43*0A
$GPGSV,3,1,11,29,67,299,40,05,59,107,29,25,46,210,16,02,37,070,24*75
$GPGSV,3,2,11,46,29,199,35,12,23,177,23,21,20,253,49,26,13,322,36*7C
$GPGSV,3,3,11,31,12,290,21,09,07,024,18,06,04,068,17*4B
$GPRMC,034027.000,A,5104.5756,N,11403.5985,W,0.03,121.88,250320,,,D*7B
$GPVTG,121.88,T,,M,0.03,N,0.06,K,D*3F
$GPGGA,034028.000,5104.5756,N,11403.5985,W,2,09,0.90,1081.3,M,-17.5,M,0000,0000*62
$GPGSA,A,3,25,05,29,31,21,12,09,02,26,,,,1.67,0.90,1.41*0B
$GPRMC,034028.000,A,5104.5756,N,11403.5985,W,0.02,40.21,250320,,,D*40
$GPVTG,40.21,T,,M,0.02,N,0.04,K,D*09
$GPGGA,034029.000,5104.5756,N,11403.5985,W,2,08,0.93,1081.3,M,-17.5,M,0000,0000*61
$GPGSA,A,3,05,29,31,21,12,09,02,26,,,,,1.71,0.93,1.43*0A
$GPRMC,034029.000,A,5104.5756,N,11403.5985,W,0.02,94.48,250320,,,D*47
$GPVTG,94.48,T,,M,0.02,N,0.04,K,D*0F
$GPGGA,034030.000,5104.5756,N,11403.5985,W,2,08,0.93,1081.3,M,-17.5,M,0000,0000*69
$GPGSA,A,3,05,29,31,21,12,09,02,26,,,,,1.71,0.93,1.43*0A
$GPRMC,034030.000,A,5104.5756,N,11403.5985,W,0.03,158.04,250320,,,D*77
$GPVTG,158.04,T,,M,0.03,N,0.05,K,D*36
$GPGGA,034031.000,5104.5756,N,11403.5985,W,2,08,0.93,1081.3,M,-17.5,M,0000,0000*68
$GPGSA,A,3,05,29,31,21,12,09,02,26,,,,,1.71,0.93,1.43*0A
$GPRMC,034031.000,A,5104.5756,N,11403.5985,W,0.03,56.67,250320,,,D*4C
$GPVTG,56.67,T,,M,0.03,N,0.05,K,D*0C
$GPGGA,034032.000,5104.5756,N,11403.5985,W,2,08,0.93,1081.3,M,-17.5,M,0000,0000*6B
$GPGSA,A,3,05,29,31,21,12,09,02,26,,,,,1.71,0.93,1.43*0A
$GPGSV,3,1,11,29,67,299,40,05,59,107,29,25,45,210,14,02,37,070,21*71
$GPGSV,3,2,11,46,29,199,35,12,23,177,24,21,20,253,49,26,13,322,36*7B
$GPGSV,3,3,11,31,12,290,22,09,07,024,22,06,04,068,17*41
$GPRMC,034032.000,A,5104.5756,N,11403.5985,W,0.02,87.56,250320,,,D*40
$GPVTG,87.56,T,,M,0.02,N,0.03,K,D*05
$GPGGA,034033.000,5104.5756,N,11403.5985,W,2,08,0.93,1081.3,M,-17.5,M,0000,0000*6A
$GPGSA,A,3,05,29,31,21,12,09,02,26,,,,,1.70,0.93,1.43*0B
$GPRMC,034033.000,A,5104.5756,N,11403.5985,W,0.03,158.28,250320,,,D*7A
$GPVTG,158.28,T,,M,0.03,N,0.06,K,D*3B
$GPGGA,034034.000,5104.5756,N,11403.5985,W,2,08,0.93,1081.3,M,-17.5,M,0000,0000*6D
$GPGSA,A,3,05,29,31,21,12,09,02,26,,,,,1.71,0.93,1.43*0A
$GPRMC,034034.000,A,5104.5756,N,11403.5985,W,0.01,143.76,250320,,,D*7E
$GPVTG,143.76,T,,M,0.01,N,0.03,K,D*3D
$GPGGA,034035.000,5104.5756,N,11403.5985,W,2,08,0.93,1081.3,M,-17.5,M,0000,0000*6C
$GPGSA,A,3,05,29,31,21,12,09,02,26,,,,,1.71,0.93,1.43*0A
$GPRMC,034035.000,A,5104.5756,N,11403.5985,W,0.02,96.97,250320,,,D*4A
$GPVTG,96.97,T,,M,0.02,N,0.03,K,D*08
$GPGGA,034036.000,5104.5756,N,11403.5985,W,2,09,0.90,1081.3,M,-17.5,M,0000,0000*6D
$GPGSA,A,3,25,05,29,31,21,12,09,02,26,,,,1.67,0.90,1.40*0A
$GPRMC,034036.000,A,5104.5756,N,11403.5985,W,0.01,23.81,250320,,,D*43
$GPVTG,23.81,T,,M,0.01,N,0.01,K,D*00
$GPGGA,034037.000,5104.5756,N,11403.5985,W,2,09,0.90,1081.3,M,-17.5,M,0000,0000*6C
$GPGSA,A,3,25,05,29,31,21,12,09,02,26,,,,1.67,0.90,1.40*0A
$GPGSV,3,1,11,29,67,299,40,05,59,107,30,25,45,210,18,02,37,070,18*7F
$GPGSV,3,2,11,46,29,199,35,12,23,177,25,21,20,253,49,26,13,322,36*7A
$GPGSV,3,3,11,31,12,290,21,09,07,024,24,06,04,068,18*4B
$GPRMC,034037.000,A,5104.5756,N,11403.5985,W,0.02,226.05,250320,,,D*7A
$GPVTG,226.05,T,,M,0.02,N,0.03,K,D*3A
$GPGGA,034038.000,5104.5756,N,11403.5985,W,2,09,0.90,1081.3,M,-17.5,M,0000,0000*63
$GPGSA,A,3,25,05,29,31,21,12,09,02,26,,,,1.67,0.90,1.40*0A
$GPRMC,034038.000,A,5104.5756,N,11403.5985,W,0.00,30.21,250320,,,D*44
$GPVTG,30.21,T,,M,0.00,N,0.01,K,D*09
$GPGGA,034039.000,5104.5756,N,11403.5985,W,2,09,0.90,1081.3,M,-17.5,M,0000,0000*62
$GPGSA,A,3,25,05,29,31,21,12,09,02,26,,,,1.67,0.90,1.40*0A
$GPRMC,034039.000,A,5104.5756,N,11403.5985,W,0.03,52.92,250320,,,D*4A
$GPVTG,52.92,T,,M,0.03,N,0.05,K,D*02
$GPGGA,034040.000,5104.5756,N,11403.5984,W,2,09,0.90,1081.3,M,-17.5,M,0000,0000*6D
$GPGSA,A,3,25,05,29,31,21,12,09,02,26,,,,1.67,0.90,1.40*0A
$GPRMC,034040.000,A,5104.5756,N,11403.5984,W,0.02,145.91,250320,,,D*70
$GPVTG,145.91,T,,M,0.02,N,0.03,K,D*31
$GPGGA,034041.000,5104.5756,N,11403.5984,W,2,09,0.90,1081.3,M,-17.5,M,0000,0000*6C
$GPGSA,A,3,25,05,29,31,21,12,09,02,26,,,,1.67,0.90,1.40*0A
$GPRMC,034041.000,A,5104.5756,N,11403.5984,W,0.02,47.03,250320,,,D*49
$GPVTG,47.03,T,,M,0.02,N,0.03,K,D*09
$GPGGA,034042.000,5104.5756,N,11403.5984,W,2,09,0.90,1081.3,M,-17.5,M,0000,0000*6F
$GPGSA,A,3,25,05,29,31,21,12,09,02,26,,,,1.67,0.90,1.40*0A
$GPGSV,3,1,11,29,67,299,40,05,59,107,30,25,45,210,22,02,37,070,17*79
$GPGSV,3,2,11,46,29,199,35,12,23,177,26,21,20,253,49,26,13,322,36*79
$GPGSV,3,3,11,31,12,290,21,09,07,024,26,06,04,068,18*49
$GPRMC,034042.000,A,5104.5756,N,11403.5984,W,0.03,97.74,250320,,,D*46
$GPVTG,97.74,T,,M,0.03,N,0.05,K,D*03
$GPGGA,034043.000,5104.5756,N,11403.5984,W,2,09,0.90,1081.3,M,-17.5,M,0000,0000*6E
$GPGSA,A,3,25,05,29,31,21,12,09,02,26,,,,1.66,0.90,1.40*0B
$GPRMC,034043.000,A,5104.5756,N,11403.5984,W,0.02,59.56,250320,,,D*44
$GPVTG,59.56,T,,M,0.02,N,0.04,K,D*01
$GPGGA,034044.000,5104.5756,N,11403.5984,W,2,09,0.90,1081.3,M,-17.5,M,0000,0000*69
$GPGSA,A,3,25,05,29,31,21,12,09,02,26,,,,1.67,0.90,1.40*0A
$GPRMC,034044.000,A,5104.5756,N,11403.5984,W,0.02,0.39,250320,,,D*76
$GPVTG,0.39,T,,M,0.02,N,0.04,K,D*34
$GPGGA,034045.000,5104.5756,N,11403.5984,W,2,09,0.90,1081.3,M,-17.5,M,0000,0000*68
$GPGSA,A,3,25,05,29,31,21,12,09,02,26,,,,1.66,0.90,1.40*0B
$GPRMC,034045.000,A,5104.5756,N,11403.5984,W,0.01,342.43,250320,,,D*7C
$GPVTG,342.43,T,,M,0.01,N,0.02,K,D*39
$GPGGA,034046.000,5104.5756,N,11403.5984,W,2,09,0.90,1081.3,M,-17.5,M,0000,0000*6B
$GPGSA,A,3,25,05,29,31,21,12,09,02,26,,,,1.67,0.90,1.40*0A
$GPRMC,034046.000,A,5104.5756,N,11403.5984,W,0.01,66.67,250320,,,D*4C
$GPVTG,66.67,T,,M,0.01,N,0.03,K,D*0B
$GPGGA,034047.000,5104.5756,N,11403.5984,W,2,09,0.90,1081.3,M,-17.5,M,0000,0000*6A
$GPGSA,A,3,25,05,29,31,21,12,09,02,26,,,,1.66,0.90,1.40*0B
$GPGSV,3,1,11,29,67,299,40,05,59,107,30,25,45,210,23,02,37,070,16*79
$GPGSV,3,2,11,46,29,199,34,12,23,177,26,21,20,253,49,26,13,322,36*78
$GPGSV,3,3,11,31,12,290,20,09,07,024,26,06,04,068,17*47
$GPRMC,034047.000,A,5104.5756,N,11403.5984,W,0.01,77.23,250320,,,D*4D
$GPVTG,77.23,T,,M,0.01,N,0.02,K,D*0A
$GPGGA,034048.000,5104.5756,N,11403.5984,W,2,09,0.90,1081.3,M,-17.5,M,0000,0000*65
$GPGSA,A,3,25,05,29,31,21,12,09,02,26,,,,1.67,0.90,1.40*0A
$GPRMC,034048.000,A,5104.5756,N,11403.5984,W,0.01,27.74,250320,,,D*45
$GPVTG,27.74,T,,M,0.01,N,0.02,K,D*0D
$GPGGA,034049.000,5104.5756,N,11403.5984,W,2,09,0.90,1081.3,M,-17.5,M,0000,0000*64
$GPGSA,A,3,25,05,29,31,21,12,09,02,26,,,,1.66,0.90,1.40*0B
$GPRMC,034049.000,A,5104.5756,N,11403.5984,W,0.02,127.98,250320,,,D*74
$GPVTG,127.98,T,,M,0.02,N,0.04,K,D*3B
$GPGGA,034050.000,5104.5756,N,11403.5984,W,2,09,0.90,1081.3,M,-17.5,M,0000,0000*6C
$GPGSA,A,3,25,05,29,31,21,12,09,02,26,,,,1.66,0.90,1.40*0B
$GPRMC,034050.000,A,5104.5756,N,11403.5984,W,0.02,89.11,250320,,,D*48
$GPVTG,89.11,T,,M,0.02,N,0.03,K,D*08
$GPGGA,034051.000,5104.5756,N,11403.5984,W,2,09,0.90,1081.3,M,-17.5,M,0000,0000*6D
$GPGSA,A,3,25,05,29,31,21,12,09,02,26,,,,1.67,0.90,1.40*0A
$GPRMC,034051.000,A,5104.5756,N,11403.5984,W,0.02,89.49,250320,,,D*44
$GPVTG,89.49,T,,M,0.02,N,0.03,K,D*05
$GPGGA,034052.000,5104.5756,N,11403.5984,W,2,09,0.90,1081.3,M,-17.5,M,0000,0000*6E
$GPGSA,A,3,25,05,29,31,21,12,09,02,26,,,,1.67,0.90,1.40*0A
$GPGSV,3,1,11,29,67,299,40,05,59,107,29,25,45,210,20,02,37,070,18*7C
$GPGSV,3,2,11,46,29,199,34,12,23,177,25,21,20,253,49,26,13,322,35*78
$GPGSV,3,3,11,31,12,290,20,09,07,024,26,06,04,068,16*46
$GPRMC,034052.000,A,5104.5756,N,11403.5984,W,0.02,88.72,250320,,,D*4E
$GPVTG,88.72,T,,M,0.02,N,0.03,K,D*0C
$GPGGA,034053.000,5104.5756,N,11403.5984,W,2,09,0.90,1081.3,M,-17.5,M,0000,0000*6F
$GPGSA,A,3,25,05,29,31,21,12,09,02,26,,,,1.66,0.90,1.40*0B
$GPRMC,034053.000,A,5104.5756,N,11403.5984,W,0.03,69.18,250320,,,D*4D
$GPVTG,69.18,T,,M,0.03,N,0.06,K,D*0B
$GPGGA,034054.000,5104.5756,N,11403.5984,W,2,09,0.90,1081.3,M,-17.5,M,0000,0000*68
$GPGSA,A,3,25,05,29,31,21,12,09,02,26,,,,1.66,0.90,1.40*0B
$GPRMC,034054.000,A,5104.5756,N,11403.5984,W,0.01,53.02,250320,,,D*4A
$GPVTG,53.02,T,,M,0.01,N,0.02,K,D*0F
$GPGGA,034055.000,5104.5756,N,11403.5984,W,2,08,0.93,1081.3,M,-17.5,M,0000,0000*6B
$GPGSA,A,3,05,29,31,21,12,09,02,26,,,,,1.70,0.93,1.43*0B
$GPRMC,034055.000,A,5104.5756,N,11403.5984,W,0.01,20.72,250320,,,D*48
$GPVTG,20.72,T,,M,0.01,N,0.01,K,D*0F
$GPGGA,034056.000,5104.5756,N,11403.5984,W,2,08,0.93,1081.3,M,-17.5,M,0000,0000*68
$GPGSA,A,3,05,29,31,21,12,09,02,26,,,,,1.70,0.93,1.43*0B
$GPRMC,034056.000,A,5104.5756,N,11403.5984,W,0.01,116.51,250320,,,D*7E
$GPVTG,116.51,T,,M,0.01,N,0.02,K,D*39
$GPGGA,034057.000,5104.5756,N,11403.5984,W,2,08,0.93,1081.3,M,-17.5,M,0000,0000*69
$GPGSA,A,3,05,29,31,21,12,09,02,26,,,,,1.70,0.93,1.43*0B
$GPGSV,3,1,11,29,67,299,40,05,59,107,29,25,45,210,16,02,37,070,20*72
$GPGSV,3,2,11,46,29,199,35,12,23,177,25,21,20,253,49,26,13,322,35*79
$GPGSV,3,3,11,31,12,290,17,09,07,024,24,06,04,068,15*43
$GPRMC,034057.000,A,5104.5756,N,11403.5984,W,0.02,47.29,250320,,,D*46
$GPVTG,47.29,T,,M,0.02,N,0.04,K,D*06
$GPGGA,034058.000,5104.5756,N,11403.5984,W,2,08,0.93,1081.3,M,-17.5,M,0000,0000*66
$GPGSA,A,3,05,29,31,21,12,09,02,26,,,,,1.70,0.93,1.43*0B
$GPRMC,034058.000,A,5104.5756,N,11403.5984,W,0.01,117.73,250320,,,D*71
$GPVTG,117.73,T,,M,0.01,N,0.01,K,D*3B
$GPGGA,034059.000,5104.5756,N,11403.5984,W,2,08,0.93,1081.3,M,-17.5,M,0000,0000*67
$GPGSA,A,3,05,29,31,21,12,09,02,26,,,,,1.70,0.93,1.42*0A
$GPRMC,034059.000,A,5104.5756,N,11403.5984,W,0.00,181.29,250320,,,D*71
$GPVTG,181.29,T,,M,0.00,N,0.01,K,D*3A
$GPGGA,034100.000,5104.5756,N,11403.5984,W,2,08,0.93,1081.3,M,-17.5,M,0000,0000*6A
$GPGSA,A,3,05,29,31,21,12,09,02,26,,,,,1.70,0.93,1.43*0B
$GPRMC,034100.000,A,5104.5756,N,11403.5984,W,0.02,121.42,250320,,,D*79
$GPVTG,121.42,T,,M,0.02,N,0.05,K,D*3B
$GPGGA,034101.000,5104.5756,N,11403.5984,W,2,08,0.93,1081.3,M,-17.5,M,0000,0000*6B
$GPGSA,A,3,05,29,31,21,12,09,02,26,,,,,1.70,0.93,1.42*0A
$GPRMC,034101.000,A,5104.5756,N,11403.5984,W,0.01,154.70,250320,,,D*78
$GPVTG,154.70,T,,M,0.01,N,0.01,K,D*3F
$GPGGA,034102.000,5104.5756,N,11403.5984,W,2,08,0.93,1081.3,M,-17.5,M,0000,0000*68
$GPGSA,A,3,05,29,31,21,12,09,02,26,,,,,1.70,0.93,1.42*0A
$GPGSV,3,1,11,29,67,299,40,05,59,107,27,25,45,210,18,02,37,070,22*70
$GPGSV,3,2,11,46,29,199,35,12,23,177,25,21,20,253,49,26,13,322,34*78
$GPGSV,3,3,11,31,12,290,15,09,07,024,23,06,04,068,14*47
$GPRMC,034102.000,A,5104.5756,N,11403.5984,W,0.02,180.46,250320,,,D*74
$GPVTG,180.46,T,,M,0.02,N,0.04,K,D*35
$GPGGA,034103.000,5104.5756,N,11403.5984,W,2,08,0.93,1081.3,M,-17.5,M,0000,0000*69
$GPGSA,A,3,05,29,31,21,12,09,02,26,,,,,1.70,0.93,1.42*0A
$GPRMC,034103.000,A,5104.5756,N,11403.5984,W,0.01,33.49,250320,,,D*40
$GPVTG,33.49,T,,M,0.01,N,0.02,K,D*06
$GPGGA,034104.000,5104.5757,N,11403.5982,W,2,09,0.90,1081.3,M,-17.5,M,0000,0000*6B
$GPGSA,A,3,25,05,29,31,21,12,09,02,26,,,,1.66,0.90,1.40*0B
$GPRMC,034104.000,A,5104.5757,N,11403.5982,W,0.02,33.54,250320,,,D*4F
$GPVTG,33.54,T,,M,0.02,N,0.05,K,D*0E
$GPGGA,034105.000,5104.5757,N,11403.5981,W,2,09,0.90,1081.2,M,-17.5,M,0000,0000*68
$GPGSA,A,3,25,05,29,31,21,12,09,02,26,,,,1.66,0.90,1.40*0B
$GPRMC,034105.000,A,5104.5757,N,11403.5981,W,0.01,191.10,250320,,,D*77
$GPVTG,191.10,T,,M,0.01,N,0.01,K,D*30
$GPGGA,034106.000,5104.5757,N,11403.5980,W,2,09,0.90,1081.1,M,-17.5,M,0000,0000*69
$GPGSA,A,3,25,05,29,31,21,12,09,02,26,,,,1.66,0.90,1.40*0B
$GPRMC,034106.000,A,5104.5757,N,11403.5980,W,0.02,62.42,250320,,,D*4C
$GPVTG,62.42,T,,M,0.02,N,0.03,K,D*0B
$GPGGA,034107.000,5104.5757,N,11403.5979,W,2,09,0.90,1081.1,M,-17.5,M,0000,0000*6E
$GPGSA,A,3,25,05,29,31,21,12,09,02,26,,,,1.66,0.90,1.40*0B
$GPGSV,3,1,11,29,67,299,40,05,59,107,25,25,45,210,21,02,37,070,23*79
$GPGSV,3,2,11,46,29,199,35,12,23,177,27,21,20,253,49,26,14,322,34*7D
$GPGSV,3,3,11,31,12,290,18,09,07,024,22,06,04,068,15*4A
$GPRMC,034107.000,A,5104.5757,N,11403.5979,W,0.01,48.49,250320,,,D*4B
$GPVTG,48.49,T,,M,0.01,N,0.03,K,D*0B
$GPGGA,034108.000,5104.5758,N,11403.5977,W,2,09,0.90,1081.0,M,-17.5,M,0000,0000*61
$GPGSA,A,3,25,05,29,31,21,12,09,02,26,,,,1.66,0.90,1.40*0B
$GPRMC,034108.000,A,5104.5758,N,11403.5977,W,0.02,69.78,250320,,,D*47
$GPVTG,69.78,T,,M,0.02,N,0.04,K,D*0E
$GPGGA,034109.000,5104.5757,N,11403.5975,W,2,09,0.90,1081.0,M,-17.5,M,0000,0000*6D
$GPGSA,A,3,25,05,29,31,21,12,09,02,26,,,,1.66,0.90,1.40*0B
$GPRMC,034109.000,A,5104.5757,N,11403.5975,W,0.01,165.17,250320,,,D*7C
$GPVTG,165.17,T,,M,0.01,N,0.03,K,D*3E
$GPGGA,034110.000,5104.5757,N,11403.5974,W,2,09,0.90,1080.9,M,-17.5,M,0000,0000*6C
$GPGSA,A,3,25,05,29,31,21,12,09,02,26,,,,1.66,0.90,1.40*0B
$GPRMC,034110.000,A,5104.5757,N,11403.5974,W,0.01,131.30,250320,,,D*71
$GPVTG,131.30,T,,M,0.01,N,0.03,K,D*3A
$GPGGA,034111.000,5104.5757,N,11403.5973,W,2,09,0.90,1080.8,M,-17.5,M,0000,0000*6B
$GPGSA,A,3,25,05,29,31,21,12,09,02,26,,,,1.66,0.90,1.40*0B
$GPRMC,034111.000,A,5104.5757,N,11403.5973,W,0.00,96.90,250320,,,D*40
$GPVTG,96.90,T,,M,0.00,N,0.00,K,D*0E
$GPGGA,034112.000,5104.5757,N,11403.5971,W,2,09,0.90,1080.8,M,-17.5,M,0000,0000*6A
$GPGSA,A,3,25,05,29,31,21,12,09,02,26,,,,1.66,0.90,1.40*0B
$GPGSV,3,1,11,29,68,299,40,05,59,107,25,25,45,210,24,02,37,070,23*73
$GPGSV,3,2,11,46,29,199,35,12,23,177,27,21,20,253,49,26,14,322,34*7D
$GPGSV,3,3,11,31,12,289,20,09,07,024,19,06,04,068,16*42
$GPRMC,034112.000,A,5104.5757,N,11403.5971,W,0.02,124.30,250320,,,D*71
$GPVTG,124.30,T,,M,0.02,N,0.03,K,D*3D
$GPGGA,034113.000,5104.5758,N,11403.5971,W,2,09,0.90,1080.7,M,-17.5,M,0000,0000*6B
$GPGSA,A,3,25,05,29,31,21,12,09,02,26,,,,1.66,0.90,1.40*0B
$GPRMC,034113.000,A,5104.5758,N,11403.5971,W,0.01,26.09,250320,,,D*45
$GPVTG,26.09,T,,M,0.01,N,0.01,K,D*05
$GPGGA,034114.000,5104.5758,N,11403.5970,W,2,09,0.90,1080.6,M,-17.5,M,0000,0000*6C
$GPGSA,A,3,25,05,29,31,21,12,09,02,26,,,,1.66,0.90,1.40*0B
$GPRMC,034114.000,A,5104.5758,N,11403.5970,W,0.02,332.94,250320,,,D*72
$GPVTG,332.94,T,,M,0.02,N,0.03,K,D*36
$GPGGA,034115.000,5104.5760,N,11403.5969,W,2,09,0.90,1080.6,M,-17.5,M,0000,0000*6E
$GPGSA,A,3,25,05,29,31,21,12,09,02,26,,,,1.66,0.90,1.40*0B
$GPRMC,034115.000,A,5104.5760,N,11403.5969,W,0.03,18.92,250320,,,D*4C
$GPVTG,18.92,T,,M,0.03,N,0.06,K,D*0F
$GPGGA,034116.000,5104.5760,N,11403.5969,W,2,09,0.90,1080.5,M,-17.5,M,0000,0000*6E
$GPGSA,A,3,25,05,29,31,21,12,09,02,26,,,,1.66,0.90,1.40*0B
$GPRMC,034116.000,A,5104.5760,N,11403.5969,W,0.01,18.27,250320,,,D*43
$GPVTG,18.27,T,,M,0.01,N,0.02,K,D*07
$GPGGA,034117.000,5104.5761,N,11403.5967,W,2,09,0.90,1080.4,M,-17.5,M,0000,0000*61
$GPGSA,A,3,25,05,29,31,21,12,09,02,26,,,,1.66,0.90,1.40*0B
$GPGSV,3,1,11,29,68,299,40,05,59,107,25,25,45,210,24,02,37,070,23*73
$GPGSV,3,2,11,46,29,199,35,12,23,177,27,21,20,253,49,26,14,322,34*7D
$GPGSV,3,3,11,31,12,289,21,09,07,024,16,06,04,068,14*4E
$GPRMC,034117.000,A,5104.5761,N,11403.5967,W,0.03,37.76,250320,,,D*46
$GPVTG,37.76,T,,M,0.03,N,0.06,K,D*08
$GPGGA,034118.000,5104.5762,N,11403.5966,W,2,09,0.90,1080.2,M,-17.5,M,0000,0000*6A
$GPGSA,A,3,25,05,29,31,21,12,09,02,26,,,,1.66,0.90,1.40*0B
$GPRMC,034118.000,A,5104.5762,N,11403.5966,W,0.02,350.90,250320,,,D*70
$GPVTG,350.90,T,,M,0.02,N,0.03,K,D*36
$GPGGA,034119.000,5104.5762,N,11403.5964,W,2,09,0.90,1080.1,M,-17.5,M,0000,0000*6A
$GPGSA,A,3,25,05,29,31,21,12,09,02,26,,,,1.66,0.90,1.40*0B
$GPRMC,034119.000,A,5104.5762,N,11403.5964,W,0.02,56.38,250320,,,D*44
$GPVTG,56.38,T,,M,0.02,N,0.04,K,D*06
$GPGGA,034120.000,5104.5762,N,11403.5961,W,2,09,0.90,1079.9,M,-17.5,M,0000,0000*6B
$GPGSA,A,3,25,05,29,31,21,12,09,02,26,,,,1.66,0.90,1.40*0B
$GPRMC,034120.000,A,5104.5762,N,11403.5961,W,0.02,104.44,250320,,,D*76
$GPVTG,104.44,T,,M,0.02,N,0.05,K,D*3A
$GPGGA,034121.000,5104.5762,N,11403.5959,W,2,09,0.90,1079.8,M,-17.5,M,0000,0000*60
$GPGSA,A,3,25,05,29,31,21,12,09,02,26,,,,1.66,0.90,1.40*0B
$GPRMC,034121.000,A,5104.5762,N,11403.5959,W,0.01,77.79,250320,,,D*44
$GPVTG,77.79,T,,M,0.01,N,0.02,K,D*05
$GPGGA,034122.000,5104.5763,N,11403.5957,W,2,09,0.90,1079.7,M,-17.5,M,0000,0000*63
$GPGSA,A,3,25,05,29,31,21,12,09,02,26,,,,1.66,0.90,1.40*0B
$GPGSV,3,1,11,29,68,299,40,05,59,106,25,25,45,210,25,02,37,070,23*73
$GPGSV,3,2,11,46,29,199,35,12,23,177,27,21,20,253,49,26,14,322,33*7A
$GPGSV,3,3,11,31,12,289,24,09,07,024,16,06,04,068,*4E
$GPRMC,034122.000,A,5104.5763,N,11403.5957,W,0.02,89.85,250320,,,D*49
$GPVTG,89.85,T,,M,0.02,N,0.04,K,D*02
$GPGGA,034123.000,5104.5763,N,11403.5955,W,2,09,0.90,1079.5,M,-17.5,M,0000,0000*62
$GPGSA,A,3,25,05,29,31,21,12,09,02,26,,,,1.66,0.90,1.40*0B
$GPRMC,034123.000,A,5104.5763,N,11403.5955,W,0.01,73.11,250320,,,D*41
$GPVTG,73.11,T,,M,0.01,N,0.02,K,D*0F
$GPGGA,034124.000,5104.5762,N,11403.5953,W,2,09,0.90,1079.3,M,-17.5,M,0000,0000*64
$GPGSA,A,3,25,05,29,31,21,12,09,02,26,,,,1.66,0.90,1.40*0B
$GPRMC,034124.000,A,5104.5762,N,11403.5953,W,0.01,148.38,250320,,,D*73
$GPVTG,148.38,T,,M,0.01,N,0.02,K,D*3D
$GPGGA,034125.000,5104.5763,N,11403.5951,W,2,09,0.90,1079.1,M,-17.5,M,0000,0000*64
$GPGSA,A,3,25,05,29,31,21,12,09,02,26,,,,1.66,0.90,1.40*0B
$GPRMC,034125.000,A,5104.5763,N,11403.5951,W,0.03,42.46,250320,,,D*41
$GPVTG,42.46,T,,M,0.03,N,0.05,K,D*0A
$GPGGA,034126.000,5104.5763,N,11403.5950,W,2,09,0.90,1078.9,M,-17.5,M,0000,0000*6F
$GPGSA,A,3,25,05,29,31,21,12,09,02,26,,,,1.66,0.90,1.40*0B
$GPRMC,034126.000,A,5104.5763,N,11403.5950,W,0.03,161.49,250320,,,D*7C
$GPVTG,161.49,T,,M,0.03,N,0.05,K,D*35
$GPGGA,034127.000,5104.5763,N,11403.5948,W,2,09,0.90,1078.8,M,-17.5,M,0000,0000*66
$GPGSA,A,3,25,05,29,31,21,12,09,02,26,,,,1.66,0.90,1.40*0B
$GPGSV,3,1,11,29,68,299,40,05,59,106,24,25,45,210,27,02,37,070,23*70
$GPGSV,3,2,11,46,29,199,35,12,23,177,27,21,20,253,49,26,14,322,33*7A
$GPGSV,3,3,11,31,12,289,23,09,07,024,19,06,04,068,*46
$GPRMC,034127.000,A,5104.5763,N,11403.5948,W,0.04,49.62,250320,,,D*41
$GPVTG,49.62,T,,M,0.04,N,0.07,K,D*02
$GPGGA,034128.000,5104.5763,N,11403.5946,W,2,09,0.90,1078.7,M,-17.5,M,0000,0000*68
$GPGSA,A,3,25,05,29,31,21,12,09,02,26,,,,1.66,0.90,1.39*05
$GPRMC,034128.000,A,5104.5763,N,11403.5946,W,0.02,63.41,250320,,,D*4F
$GPVTG,63.41,T,,M,0.02,N,0.04,K,D*0E
$GPGGA,034129.000,5104.5763,N,11403.5945,W,2,09,0.90,1078.6,M,-17.5,M,0000,0000*6B
$GPGSA,A,3,25,05,29,31,21,12,09,02,26,,,,1.66,0.90,1.40*0B
